Time,Des_Pos_X,Des_Pos_Y,Des_Pos_Z,Quad_Pos_X,Quad_Pos_Y,Quad_Pos_Z,Roll,Pitch,Yaw,Vx,Vy,Vz,Alpha,Beta,GammaAlpha,GammaBeta,Fx,Fy,Fz
0.0040,0.0000,0.0000,-1.5000,0.0000,-0.0000,0.9500,0.0000,-0.0000,0.0000,0.0000,0.0000,0.0000,-0.0000,0.0000,-0.0000,0.0000,-0.0000,-0.0000,-29.7402
0.0080,0.0000,0.0000,-1.5000,0.0000,-0.0000,0.9498,0.0000,-0.0000,0.0000,0.0000,0.0000,0.0392,-0.0000,0.0000,-0.0000,0.0000,-0.0000,-0.0000,-29.5905
0.0120,0.0000,0.0000,-1.5000,0.0000,-0.0000,0.9495,0.0000,-0.0000,0.0000,0.0000,0.0000,0.0765,-0.0000,0.0000,-0.0000,0.0000,-0.0000,-0.0000,-29.4470
0.0160,0.0000,0.0000,-1.5000,0.0000,-0.0000,0.9491,0.0000,-0.0000,0.0000,0.0000,0.0000,0.1118,-0.0000,0.0000,-0.0000,0.0000,-0.0000,-0.0000,-29.3104
0.0200,0.0000,0.0000,-1.5000,0.0000,-0.0000,0.9485,0.0000,-0.0000,0.0000,0.0000,0.0000,0.1451,-0.0000,0.0000,-0.0000,0.0000,-0.0000,-0.0000,-29.1809
0.0240,0.0000,0.0000,-1.5000,0.0000,-0.0000,0.9478,0.0000,-0.0000,0.0000,0.0000,0.0000,0.1764,-0.0000,0.0000,-0.0000,0.0000,-0.0000,-0.0000,-29.0581
0.0280,0.0000,0.0000,-1.5000,0.0000,-0.0000,0.9470,0.0000,-0.0000,0.0000,0.0000,0.0000,0.2060,-0.0000,0.0000,-0.0000,0.0000,-0.0000,-0.0000,-28.9414
0.0320,0.0000,0.0000,-1.5000,0.0000,-0.0000,0.9460,0.0000,-0.0000,0.0000,0.0000,0.0000,0.2340,-0.0000,0.0000,-0.0000,0.0000,-0.0000,-0.0000,-28.8300
0.0360,0.0000,0.0000,-1.5000,0.0000,-0.0000,0.9450,0.0000,-0.0000,0.0000,0.0000,0.0000,0.2608,-0.0000,0.0000,-0.0000,0.0000,-0.0000,-0.0000,-28.7228
0.0400,0.0000,0.0000,-1.5000,0.0000,-0.0000,0.9439,0.0000,-0.0000,0.0000,0.0000,0.0000,0.2865,-0.0000,0.0000,-0.0000,0.0000,-0.0000,-0.0000,-28.6190
0.0440,0.0000,0.0000,-1.5000,0.0000,-0.0000,0.9426,0.0000,-0.0000,0.0000,0.0000,0.0000,0.3114,-0.0000,0.0000,-0.0000,0.0000,-0.0000,-0.0000,-28.5177
0.0480,0.0000,0.0000,-1.5000,0.0000,-0.0000,0.9413,0.0000,-0.0000,0.0000,0.0000,0.0000,0.3358,-0.0000,0.0000,-0.0000,0.0000,-0.0000,-0.0000,-28.4179
0.0520,0.0000,0.0000,-1.5000,0.0000,-0.0000,0.9398,0.0000,-0.0000,0.0000,0.0000,0.0000,0.3599,-0.0000,0.0000,-0.0000,0.0000,-0.0000,-0.0000,-28.3189
0.0560,0.0000,0.0000,-1.5000,0.0000,-0.0000,0.9383,0.0000,-0.0000,0.0000,0.0000,0.0000,0.3838,-0.0000,0.0000,-0.0000,0.0000,-0.0000,-0.0000,-28.2200
0.0600,0.0000,0.0000,-1.5000,0.0000,-0.0000,0.9367,0.0000,-0.0000,0.0000,0.0000,0.0000,0.4077,-0.0000,0.0000,-0.0000,0.0000,-0.0000,-0.0000,-28.1208
0.0640,0.0000,0.0000,-1.5000,0.0000,-0.0000,0.9349,0.0000,-0.0000,0.0000,0.0000,0.0000,0.4316,-0.0000,0.0000,-0.0000,0.0000,-0.0000,-0.0000,-28.0208
0.0680,0.0000,0.0000,-1.5000,0.0000,-0.0000,0.9331,0.0000,-0.0000,0.0000,0.0000,0.0000,0.4557,-0.0000,0.0000,-0.0000,0.0000,-0.0000,-0.0000,-27.9196
0.0720,0.0000,0.0000,-1.5000,0.0000,-0.0000,0.9312,0.0000,-0.0000,0.0000,0.0000,0.0000,0.4800,-0.0000,0.0000,-0.0000,0.0000,-0.0000,-0.0000,-27.8172
0.0760,0.0000,0.0000,-1.5000,0.0000,-0.0000,0.9292,0.0000,-0.0000,0.0000,0.0000,0.0000,0.5045,-0.0000,0.0000,-0.0000,0.0000,-0.0000,-0.0000,-27.7135
0.0800,0.0000,0.0000,-1.5000,0.0000,-0.0000,0.9271,0.0000,-0.0000,0.0000,0.0000,0.0000,0.5292,-0.0000,0.0000,-0.0000,0.0000,-0.0000,-0.0000,-27.6085
0.0840,0.0000,0.0000,-1.5000,0.0000,-0.0000,0.9248,0.0000,-0.0000,0.0000,0.0000,0.0000,0.5541,-0.0000,0.0000,-0.0000,0.0000,-0.0000,-0.0000,-27.5023
0.0880,0.0000,0.0000,-1.5000,0.0000,-0.0000,0.9225,0.0000,-0.0000,0.0000,0.0000,0.0000,0.5791,-0.0000,0.0000,-0.0000,0.0000,-0.0000,-0.0000,-27.3949
0.0920,0.0000,0.0000,-1.5000,0.0000,-0.0000,0.9201,0.0000,-0.0000,0.0000,0.0000,0.0000,0.6043,-0.0000,0.0000,-0.0000,0.0000,-0.0000,-0.0000,-27.2868
0.0960,0.0000,0.0000,-1.5000,0.0000,-0.0000,0.9176,0.0000,-0.0000,0.0000,0.0000,0.0000,0.6294,-0.0000,0.0000,-0.0000,0.0000,-0.0000,-0.0000,-27.1779
0.1000,0.0000,0.0000,-1.5000,0.0000,-0.0000,0.9150,0.0000,-0.0000,0.0000,0.0000,0.0000,0.6546,-0.0000,0.0000,-0.0000,0.0000,-0.0000,-0.0000,-27.0686
0.1040,0.0000,0.0000,-1.5000,0.0000,-0.0000,0.9123,0.0000,-0.0000,0.0000,0.0000,0.0000,0.6796,-0.0000,0.0000,-0.0000,0.0000,-0.0000,-0.0000,-26.9591
0.1080,0.0000,0.0000,-1.5000,0.0000,-0.0000,0.9094,0.0000,-0.0000,0.0000,0.0000,0.0000,0.7046,-0.0000,0.0000,-0.0000,0.0000,-0.0000,-0.0000,-26.8497
0.1120,0.0000,0.0000,-1.5000,0.0000,-0.0000,0.9065,0.0000,-0.0000,0.0000,0.0000,0.0000,0.7293,-0.0000,0.0000,-0.0000,0.0000,-0.0000,-0.0000,-26.7404
0.1160,0.0000,0.0000,-1.5000,0.0000,-0.0000,0.9035,0.0000,-0.0000,0.0000,0.0000,0.0000,0.7538,-0.0000,0.0000,-0.0000,0.0000,-0.0000,-0.0000,-26.6316
0.1200,0.0000,0.0000,-1.5000,0.0000,-0.0000,0.9004,0.0000,-0.0000,0.0000,0.0000,0.0000,0.7780,-0.0000,0.0000,-0.0000,0.0000,-0.0000,-0.0000,-26.5232
0.1240,0.0000,0.0000,-1.5000,0.0000,-0.0000,0.8972,0.0000,-0.0000,0.0000,0.0000,0.0000,0.8019,-0.0000,0.0000,-0.0000,0.0000,-0.0000,-0.0000,-26.4156
0.1280,0.0000,0.0000,-1.5000,0.0000,-0.0000,0.8939,0.0000,-0.0000,0.0000,0.0000,0.0000,0.8255,-0.0000,0.0000,-0.0000,0.0000,-0.0000,-0.0000,-26.3087
0.1320,0.0000,0.0000,-1.5000,0.0000,-0.0000,0.8905,0.0000,-0.0000,0.0000,0.0000,0.0000,0.8487,-0.0000,0.0000,-0.0000,0.0000,-0.0000,-0.0000,-26.2026
0.1360,0.0000,0.0000,-1.5000,0.0000,-0.0000,0.8870,0.0000,-0.0000,0.0000,0.0000,0.0000,0.8716,-0.0000,0.0000,-0.0000,0.0000,-0.0000,-0.0000,-26.0974
0.1400,0.0000,0.0000,-1.5000,0.0000,-0.0000,0.8834,0.0000,-0.0000,0.0000,0.0000,0.0000,0.8941,-0.0000,0.0000,-0.0000,0.0000,-0.0000,-0.0000,-25.9931
0.1440,0.0000,0.0000,-1.5000,0.0000,-0.0000,0.8798,0.0000,-0.0000,0.0000,0.0000,0.0000,0.9163,-0.0000,0.0000,-0.0000,0.0000,-0.0000,-0.0000,-25.8896
0.1480,0.0000,0.0000,-1.5000,0.0000,-0.0000,0.8760,0.0000,-0.0000,0.0000,0.0000,0.0000,0.9381,-0.0000,0.0000,-0.0000,0.0000,-0.0000,-0.0000,-25.7870
0.1520,0.0000,0.0000,-1.5000,0.0000,-0.0000,0.8722,0.0000,-0.0000,0.0000,0.0000,0.0000,0.9596,-0.0000,0.0000,-0.0000,0.0000,-0.0000,-0.0000,-25.6852
0.1560,0.0000,0.0000,-1.5000,0.0000,-0.0000,0.8682,0.0000,-0.0000,0.0000,0.0000,0.0000,0.9808,-0.0000,0.0000,-0.0000,0.0000,-0.0000,-0.0000,-25.5842
0.1600,0.0000,0.0000,-1.5000,0.0000,-0.0000,0.8642,0.0000,-0.0000,0.0000,0.0000,0.0000,1.0017,-0.0000,0.0000,-0.0000,0.0000,-0.0000,-0.0000,-25.4838
0.1640,0.0000,0.0000,-1.5000,0.0000,-0.0000,0.8601,0.0000,-0.0000,0.0000,0.0000,0.0000,1.0222,-0.0000,0.0000,-0.0000,0.0000,-0.0000,-0.0000,-25.3842
0.1680,0.0000,0.0000,-1.5000,0.0000,-0.0000,0.8560,0.0000,-0.0000,0.0000,0.0000,0.0000,1.0426,-0.0000,0.0000,-0.0000,0.0000,-0.0000,-0.0000,-25.2851
0.1720,0.0000,0.0000,-1.5000,0.0000,-0.0000,0.8517,0.0000,-0.0000,0.0000,0.0000,0.0000,1.0626,-0.0000,0.0000,-0.0000,0.0000,-0.0000,-0.0000,-25.1866
0.1760,0.0000,0.0000,-1.5000,0.0000,-0.0000,0.8474,0.0000,-0.0000,0.0000,0.0000,0.0000,1.0824,-0.0000,0.0000,-0.0000,0.0000,-0.0000,-0.0000,-25.0887
0.1800,0.0000,0.0000,-1.5000,0.0000,-0.0000,0.8430,0.0000,-0.0000,0.0000,0.0000,0.0000,1.1020,-0.0000,0.0000,-0.0000,0.0000,-0.0000,-0.0000,-24.9912
0.1840,0.0000,0.0000,-1.5000,0.0000,-0.0000,0.8385,0.0000,-0.0000,0.0000,0.0000,0.0000,1.1214,-0.0000,0.0000,-0.0000,0.0000,-0.0000,-0.0000,-24.8941
0.1880,0.0000,0.0000,-1.5000,0.0000,-0.0000,0.8339,0.0000,-0.0000,0.0000,0.0000,0.0000,1.1405,-0.0000,0.0000,-0.0000,0.0000,-0.0000,-0.0000,-24.7975
0.1920,0.0000,0.0000,-1.5000,0.0000,-0.0000,0.8293,0.0000,-0.0000,0.0000,0.0000,0.0000,1.1594,-0.0000,0.0000,-0.0000,0.0000,-0.0000,-0.0000,-24.7012
0.1960,0.0000,0.0000,-1.5000,0.0000,-0.0000,0.8246,0.0000,-0.0000,0.0000,0.0000,0.0000,1.1782,-0.0000,0.0000,-0.0000,0.0000,-0.0000,-0.0000,-24.6054
0.2000,0.0000,0.0000,-1.5000,0.0000,-0.0000,0.8198,0.0000,-0.0000,0.0000,0.0000,0.0000,1.1967,-0.0000,0.0000,-0.0000,0.0000,-0.0000,-0.0000,-24.5099
0.2040,0.0000,0.0000,-1.5000,0.0000,-0.0000,0.8149,0.0000,-0.0000,0.0000,0.0000,0.0000,1.2150,-0.0000,0.0000,-0.0000,0.0000,-0.0000,-0.0000,-24.4148
0.2080,0.0000,0.0000,-1.5000,0.0000,-0.0000,0.8100,0.0000,-0.0000,0.0000,0.0000,0.0000,1.2332,-0.0000,0.0000,-0.0000,0.0000,-0.0000,-0.0000,-24.3201
0.2120,0.0000,0.0000,-1.5000,0.0000,-0.0000,0.8050,0.0000,-0.0000,0.0000,0.0000,0.0000,1.2511,-0.0000,0.0000,-0.0000,0.0000,-0.0000,-0.0000,-24.2257
0.2160,0.0000,0.0000,-1.5000,0.0000,-0.0000,0.7999,0.0000,-0.0000,0.0000,0.0000,0.0000,1.2688,-0.0000,0.0000,-0.0000,0.0000,-0.0000,-0.0000,-24.1318
0.2200,0.0000,0.0000,-1.5000,0.0000,-0.0000,0.7948,0.0000,-0.0000,0.0000,0.0000,0.0000,1.2864,-0.0000,0.0000,-0.0000,0.0000,-0.0000,-0.0000,-24.0382
0.2240,0.0000,0.0000,-1.5000,0.0000,-0.0000,0.7896,0.0000,-0.0000,0.0000,0.0000,0.0000,1.3037,-0.0000,0.0000,-0.0000,0.0000,-0.0000,-0.0000,-23.9451
0.2280,0.0000,0.0000,-1.5000,0.0000,-0.0000,0.7843,0.0000,-0.0000,0.0000,0.0000,0.0000,1.3208,-0.0000,0.0000,-0.0000,0.0000,-0.0000,-0.0000,-23.8524
0.2320,0.0000,0.0000,-1.5000,0.0000,-0.0000,0.7789,0.0000,-0.0000,0.0000,0.0000,0.0000,1.3377,-0.0000,0.0000,-0.0000,0.0000,-0.0000,-0.0000,-23.7602
0.2360,0.0000,0.0000,-1.5000,0.0000,-0.0000,0.7735,0.0000,-0.0000,0.0000,0.0000,0.0000,1.3544,-0.0000,0.0000,-0.0000,0.0000,-0.0000,-0.0000,-23.6684
0.2400,0.0000,0.0000,-1.5000,0.0000,-0.0000,0.7680,0.0000,-0.0000,0.0000,0.0000,0.0000,1.3709,-0.0000,0.0000,-0.0000,0.0000,-0.0000,-0.0000,-23.5770
0.2440,0.0000,0.0000,-1.5000,0.0000,-0.0000,0.7625,0.0000,-0.0000,0.0000,0.0000,0.0000,1.3871,-0.0000,0.0000,-0.0000,0.0000,-0.0000,-0.0000,-23.4862
0.2480,0.0000,0.0000,-1.5000,0.0000,-0.0000,0.7569,0.0000,-0.0000,0.0000,0.0000,0.0000,1.4032,-0.0000,0.0000,-0.0000,0.0000,-0.0000,-0.0000,-23.3958
0.2520,0.0000,0.0000,-1.5000,0.0000,-0.0000,0.7512,0.0000,-0.0000,0.0000,0.0000,0.0000,1.4190,-0.0000,0.0000,-0.0000,0.0000,-0.0000,-0.0000,-23.3059
0.2560,0.0000,0.0000,-1.5000,0.0000,-0.0000,0.7455,0.0000,-0.0000,0.0000,0.0000,0.0000,1.4346,-0.0000,0.0000,-0.0000,0.0000,-0.0000,-0.0000,-23.2165
0.2600,0.0000,0.0000,-1.5000,0.0000,-0.0000,0.7397,0.0000,-0.0000,0.0000,0.0000,0.0000,1.4500,-0.0000,0.0000,-0.0000,0.0000,-0.0000,-0.0000,-23.1276
0.2640,0.0000,0.0000,-1.5000,0.0000,-0.0000,0.7338,0.0000,-0.0000,0.0000,0.0000,0.0000,1.4652,-0.0000,0.0000,-0.0000,0.0000,-0.0000,-0.0000,-23.0392
0.2680,0.0000,0.0000,-1.5000,0.0000,-0.0000,0.7279,0.0000,-0.0000,0.0000,0.0000,0.0000,1.4802,-0.0000,0.0000,-0.0000,0.0000,-0.0000,-0.0000,-22.9513
0.2720,0.0000,0.0000,-1.5000,0.0000,-0.0000,0.7219,0.0000,-0.0000,0.0000,0.0000,0.0000,1.4950,-0.0000,0.0000,-0.0000,0.0000,-0.0000,-0.0000,-22.8639
0.2760,0.0000,0.0000,-1.5000,0.0000,-0.0000,0.7159,0.0000,-0.0000,0.0000,0.0000,0.0000,1.5095,-0.0000,0.0000,-0.0000,0.0000,-0.0000,-0.0000,-22.7770
0.2800,0.0000,0.0000,-1.5000,0.0000,-0.0000,0.7098,0.0000,-0.0000,0.0000,0.0000,0.0000,1.5238,-0.0000,0.0000,-0.0000,0.0000,-0.0000,-0.0000,-22.6906
0.2840,0.0000,0.0000,-1.5000,0.0000,-0.0000,0.7036,0.0000,-0.0000,0.0000,0.0000,0.0000,1.5380,-0.0000,0.0000,-0.0000,0.0000,-0.0000,-0.0000,-22.6047
0.2880,0.0000,0.0000,-1.5000,0.0000,-0.0000,0.6974,0.0000,-0.0000,0.0000,0.0000,0.0000,1.5519,-0.0000,0.0000,-0.0000,0.0000,-0.0000,-0.0000,-22.5193
0.2920,0.0000,0.0000,-1.5000,0.0000,-0.0000,0.6911,0.0000,-0.0000,0.0000,0.0000,0.0000,1.5656,-0.0000,0.0000,-0.0000,0.0000,-0.0000,-0.0000,-22.4343
0.2960,0.0000,0.0000,-1.5000,0.0000,-0.0000,0.6848,0.0000,-0.0000,0.0000,0.0000,0.0000,1.5792,-0.0000,0.0000,-0.0000,0.0000,-0.0000,-0.0000,-22.3499
0.3000,0.0000,0.0000,-1.5000,0.0000,-0.0000,0.6785,0.0000,-0.0000,0.0000,0.0000,0.0000,1.5925,-0.0000,0.0000,-0.0000,0.0000,-0.0000,-0.0000,-22.2659
0.3040,0.0000,0.0000,-1.5000,0.0000,-0.0000,0.6720,0.0000,-0.0000,0.0000,0.0000,0.0000,1.6056,-0.0000,0.0000,-0.0000,0.0000,-0.0000,-0.0000,-22.1824
0.3080,0.0000,0.0000,-1.5000,0.0000,-0.0000,0.6656,0.0000,-0.0000,0.0000,0.0000,0.0000,1.6185,-0.0000,0.0000,-0.0000,0.0000,-0.0000,-0.0000,-22.0994
0.3120,0.0000,0.0000,-1.5000,0.0000,-0.0000,0.6590,0.0000,-0.0000,0.0000,0.0000,0.0000,1.6313,-0.0000,0.0000,-0.0000,0.0000,-0.0000,-0.0000,-22.0168
0.3160,0.0000,0.0000,-1.5000,0.0000,-0.0000,0.6525,0.0000,-0.0000,0.0000,0.0000,0.0000,1.6438,-0.0000,0.0000,-0.0000,0.0000,-0.0000,-0.0000,-21.9347
0.3200,0.0000,0.0000,-1.5000,0.0000,-0.0000,0.6458,0.0000,-0.0000,0.0000,0.0000,0.0000,1.6562,-0.0000,0.0000,-0.0000,0.0000,-0.0000,-0.0000,-21.8531
0.3240,0.0000,0.0000,-1.5000,0.0000,-0.0000,0.6392,0.0000,-0.0000,0.0000,0.0000,0.0000,1.6683,-0.0000,0.0000,-0.0000,0.0000,-0.0000,-0.0000,-21.7720
0.3280,0.0000,0.0000,-1.5000,0.0000,-0.0000,0.6324,0.0000,-0.0000,0.0000,0.0000,0.0000,1.6803,-0.0000,0.0000,-0.0000,0.0000,-0.0000,-0.0000,-21.6913
0.3320,0.0000,0.0000,-1.5000,0.0000,-0.0000,0.6257,0.0000,-0.0000,0.0000,0.0000,0.0000,1.6921,-0.0000,0.0000,-0.0000,0.0000,-0.0000,-0.0000,-21.6111
0.3360,0.0000,0.0000,-1.5000,0.0000,-0.0000,0.6189,0.0000,-0.0000,0.0000,0.0000,0.0000,1.7037,-0.0000,0.0000,-0.0000,0.0000,-0.0000,-0.0000,-21.5314
0.3400,0.0000,0.0000,-1.5000,0.0000,-0.0000,0.6120,0.0000,-0.0000,0.0000,0.0000,0.0000,1.7151,-0.0000,0.0000,-0.0000,0.0000,-0.0000,-0.0000,-21.4521
0.3440,0.0000,0.0000,-1.5000,0.0000,-0.0000,0.6051,0.0000,-0.0000,0.0000,0.0000,0.0000,1.7263,-0.0000,0.0000,-0.0000,0.0000,-0.0000,-0.0000,-21.3734
0.3480,0.0000,0.0000,-1.5000,0.0000,-0.0000,0.5981,0.0000,-0.0000,0.0000,0.0000,0.0000,1.7373,-0.0000,0.0000,-0.0000,0.0000,-0.0000,-0.0000,-21.2950
0.3520,0.0000,0.0000,-1.5000,0.0000,-0.0000,0.5912,0.0000,-0.0000,0.0000,0.0000,0.0000,1.7482,-0.0000,0.0000,-0.0000,0.0000,-0.0000,-0.0000,-21.2172
0.3560,0.0000,0.0000,-1.5000,0.0000,-0.0000,0.5841,0.0000,-0.0000,0.0000,0.0000,0.0000,1.7589,-0.0000,0.0000,-0.0000,0.0000,-0.0000,-0.0000,-21.1398
0.3600,0.0000,0.0000,-1.5000,0.0000,-0.0000,0.5770,0.0000,-0.0000,0.0000,0.0000,0.0000,1.7694,-0.0000,0.0000,-0.0000,0.0000,-0.0000,-0.0000,-21.0629
0.3640,0.0000,0.0000,-1.5000,0.0000,-0.0000,0.5699,0.0000,-0.0000,0.0000,0.0000,0.0000,1.7797,-0.0000,0.0000,-0.0000,0.0000,-0.0000,-0.0000,-20.9865
0.3680,0.0000,0.0000,-1.5000,0.0000,-0.0000,0.5628,0.0000,-0.0000,0.0000,0.0000,0.0000,1.7898,-0.0000,0.0000,-0.0000,0.0000,-0.0000,-0.0000,-20.9105
0.3720,0.0000,0.0000,-1.5000,0.0000,-0.0000,0.5556,0.0000,-0.0000,0.0000,0.0000,0.0000,1.7997,-0.0000,0.0000,-0.0000,0.0000,-0.0000,-0.0000,-20.8350
0.3760,0.0000,0.0000,-1.5000,0.0000,-0.0000,0.5483,0.0000,-0.0000,0.0000,0.0000,0.0000,1.8095,-0.0000,0.0000,-0.0000,0.0000,-0.0000,-0.0000,-20.7600
0.3800,0.0000,0.0000,-1.5000,0.0000,-0.0000,0.5410,0.0000,-0.0000,0.0000,0.0000,0.0000,1.8191,-0.0000,0.0000,-0.0000,0.0000,-0.0000,-0.0000,-20.6854
0.3840,0.0000,0.0000,-1.5000,0.0000,-0.0000,0.5337,0.0000,-0.0000,0.0000,0.0000,0.0000,1.8285,-0.0000,0.0000,-0.0000,0.0000,-0.0000,-0.0000,-20.6113
0.3880,0.0000,0.0000,-1.5000,0.0000,-0.0000,0.5264,0.0000,-0.0000,0.0000,0.0000,0.0000,1.8378,-0.0000,0.0000,-0.0000,0.0000,-0.0000,-0.0000,-20.5377
0.3920,0.0000,0.0000,-1.5000,0.0000,-0.0000,0.5190,0.0000,-0.0000,0.0000,0.0000,0.0000,1.8469,-0.0000,0.0000,-0.0000,0.0000,-0.0000,-0.0000,-20.4646
0.3960,0.0000,0.0000,-1.5000,0.0000,-0.0000,0.5116,0.0000,-0.0000,0.0000,0.0000,0.0000,1.8558,-0.0000,0.0000,-0.0000,0.0000,-0.0000,-0.0000,-20.3919
0.4000,0.0000,0.0000,-1.5000,0.0000,-0.0000,0.5041,0.0000,-0.0000,0.0000,0.0000,0.0000,1.8645,-0.0000,0.0000,-0.0000,0.0000,-0.0000,-0.0000,-20.3197
0.4040,0.0000,0.0000,-1.5000,0.0000,-0.0000,0.4966,0.0000,-0.0000,0.0000,0.0000,0.0000,1.8731,-0.0000,0.0000,-0.0000,0.0000,-0.0000,-0.0000,-20.2479
0.4080,0.0000,0.0000,-1.5000,0.0000,-0.0000,0.4891,0.0000,-0.0000,0.0000,0.0000,0.0000,1.8814,-0.0000,0.0000,-0.0000,0.0000,-0.0000,-0.0000,-20.1767
0.4120,0.0000,0.0000,-1.5000,0.0000,-0.0000,0.4815,0.0000,-0.0000,0.0000,0.0000,0.0000,1.8897,-0.0000,0.0000,-0.0000,0.0000,-0.0000,-0.0000,-20.1059
0.4160,0.0000,0.0000,-1.5000,0.0000,-0.0000,0.4739,0.0000,-0.0000,0.0000,0.0000,0.0000,1.8977,-0.0000,0.0000,-0.0000,0.0000,-0.0000,-0.0000,-20.0355
0.4200,0.0000,0.0000,-1.5000,0.0000,-0.0000,0.4663,0.0000,-0.0000,0.0000,0.0000,0.0000,1.9056,-0.0000,0.0000,-0.0000,0.0000,-0.0000,-0.0000,-19.9656
0.4240,0.0000,0.0000,-1.5000,0.0000,-0.0000,0.4587,0.0000,-0.0000,0.0000,0.0000,0.0000,1.9133,-0.0000,0.0000,-0.0000,0.0000,-0.0000,-0.0000,-19.8962
0.4280,0.0000,0.0000,-1.5000,0.0000,-0.0000,0.4510,0.0000,-0.0000,0.0000,0.0000,0.0000,1.9209,-0.0000,0.0000,-0.0000,0.0000,-0.0000,-0.0000,-19.8273
0.4320,0.0000,0.0000,-1.5000,0.0000,-0.0000,0.4433,0.0000,-0.0000,0.0000,0.0000,0.0000,1.9283,-0.0000,0.0000,-0.0000,0.0000,-0.0000,-0.0000,-19.7588
0.4360,0.0000,0.0000,-1.5000,0.0000,-0.0000,0.4355,0.0000,-0.0000,0.0000,0.0000,0.0000,1.9355,-0.0000,0.0000,-0.0000,0.0000,-0.0000,-0.0000,-19.6908
0.4400,0.0000,0.0000,-1.5000,0.0000,-0.0000,0.4278,0.0000,-0.0000,0.0000,0.0000,0.0000,1.9426,-0.0000,0.0000,-0.0000,0.0000,-0.0000,-0.0000,-19.6232
0.4440,0.0000,0.0000,-1.5000,0.0000,-0.0000,0.4200,0.0000,-0.0000,0.0000,0.0000,0.0000,1.9495,-0.0000,0.0000,-0.0000,0.0000,-0.0000,-0.0000,-19.5561
0.4480,0.0000,0.0000,-1.5000,0.0000,-0.0000,0.4121,0.0000,-0.0000,0.0000,0.0000,0.0000,1.9563,-0.0000,0.0000,-0.0000,0.0000,-0.0000,-0.0000,-19.4894
0.4520,0.0000,0.0000,-1.5000,0.0000,-0.0000,0.4043,0.0000,-0.0000,0.0000,0.0000,0.0000,1.9629,-0.0000,0.0000,-0.0000,0.0000,-0.0000,-0.0000,-19.4232
0.4560,0.0000,0.0000,-1.5000,0.0000,-0.0000,0.3964,0.0000,-0.0000,0.0000,0.0000,0.0000,1.9694,-0.0000,0.0000,-0.0000,0.0000,-0.0000,-0.0000,-19.3575
0.4600,0.0000,0.0000,-1.5000,0.0000,-0.0000,0.3885,0.0000,-0.0000,0.0000,0.0000,0.0000,1.9757,-0.0000,0.0000,-0.0000,0.0000,-0.0000,-0.0000,-19.2922
0.4640,0.0000,0.0000,-1.5000,0.0000,-0.0000,0.3806,0.0000,-0.0000,0.0000,0.0000,0.0000,1.9818,-0.0000,0.0000,-0.0000,0.0000,-0.0000,-0.0000,-19.2274
0.4680,0.0000,0.0000,-1.5000,0.0000,-0.0000,0.3726,0.0000,-0.0000,0.0000,0.0000,0.0000,1.9878,-0.0000,0.0000,-0.0000,0.0000,-0.0000,-0.0000,-19.1630
0.4720,0.0000,0.0000,-1.5000,0.0000,-0.0000,0.3647,0.0000,-0.0000,0.0000,0.0000,0.0000,1.9936,-0.0000,0.0000,-0.0000,0.0000,-0.0000,-0.0000,-19.0991
0.4760,0.0000,0.0000,-1.5000,0.0000,-0.0000,0.3567,0.0000,-0.0000,0.0000,0.0000,0.0000,1.9993,-0.0000,0.0000,-0.0000,0.0000,-0.0000,-0.0000,-19.0356
0.4800,0.0000,0.0000,-1.5000,0.0000,-0.0000,0.3486,0.0000,-0.0000,0.0000,0.0000,0.0000,2.0049,-0.0000,0.0000,-0.0000,0.0000,-0.0000,-0.0000,-18.9726
0.4840,0.0000,0.0000,-1.5000,0.0000,-0.0000,0.3406,0.0000,-0.0000,0.0000,0.0000,0.0000,2.0103,-0.0000,0.0000,-0.0000,0.0000,-0.0000,-0.0000,-18.9100
0.4880,0.0000,0.0000,-1.5000,0.0000,-0.0000,0.3325,0.0000,-0.0000,0.0000,0.0000,0.0000,2.0155,-0.0000,0.0000,-0.0000,0.0000,-0.0000,-0.0000,-18.8479
0.4920,0.0000,0.0000,-1.5000,0.0000,-0.0000,0.3245,0.0000,-0.0000,0.0000,0.0000,0.0000,2.0206,-0.0000,0.0000,-0.0000,0.0000,-0.0000,-0.0000,-18.7862
0.4960,0.0000,0.0000,-1.5000,0.0000,-0.0000,0.3163,0.0000,-0.0000,0.0000,0.0000,0.0000,2.0256,-0.0000,0.0000,-0.0000,0.0000,-0.0000,-0.0000,-18.7250
0.5000,0.0000,0.0000,-1.5000,0.0000,-0.0000,0.3082,0.0000,-0.0000,0.0000,0.0000,0.0000,2.0304,-0.0000,0.0000,-0.0000,0.0000,-0.0000,-0.0000,-18.6642
0.5040,0.0000,0.0000,-1.5000,0.0000,-0.0000,0.3001,0.0000,-0.0000,0.0000,0.0000,0.0000,2.0350,-0.0000,0.0000,-0.0000,0.0000,-0.0000,-0.0000,-18.6039
0.5080,0.0000,0.0000,-1.5000,0.0000,-0.0000,0.2919,0.0000,-0.0000,0.0000,0.0000,0.0000,2.0396,-0.0000,0.0000,-0.0000,0.0000,-0.0000,-0.0000,-18.5440
0.5120,0.0000,0.0000,-1.5000,0.0000,-0.0000,0.2838,0.0000,-0.0000,0.0000,0.0000,0.0000,2.0439,-0.0000,0.0000,-0.0000,0.0000,-0.0000,-0.0000,-18.4846
0.5160,0.0000,0.0000,-1.5000,0.0000,-0.0000,0.2756,0.0000,-0.0000,0.0000,0.0000,0.0000,2.0482,-0.0000,0.0000,-0.0000,0.0000,-0.0000,-0.0000,-18.4256
0.5200,0.0000,0.0000,-1.5000,0.0000,-0.0000,0.2674,0.0000,-0.0000,0.0000,0.0000,0.0000,2.0523,-0.0000,0.0000,-0.0000,0.0000,-0.0000,-0.0000,-18.3670
0.5240,0.0000,0.0000,-1.5000,0.0000,-0.0000,0.2591,0.0000,-0.0000,0.0000,0.0000,0.0000,2.0563,-0.0000,0.0000,-0.0000,0.0000,-0.0000,-0.0000,-18.3089
0.5280,0.0000,0.0000,-1.5000,0.0000,-0.0000,0.2509,0.0000,-0.0000,0.0000,0.0000,0.0000,2.0601,-0.0000,0.0000,-0.0000,0.0000,-0.0000,-0.0000,-18.2512
0.5320,0.0000,0.0000,-1.5000,0.0000,-0.0000,0.2426,0.0000,-0.0000,0.0000,0.0000,0.0000,2.0638,-0.0000,0.0000,-0.0000,0.0000,-0.0000,-0.0000,-18.1940
0.5360,0.0000,0.0000,-1.5000,0.0000,-0.0000,0.2344,0.0000,-0.0000,0.0000,0.0000,0.0000,2.0674,-0.0000,0.0000,-0.0000,0.0000,-0.0000,-0.0000,-18.1372
0.5400,0.0000,0.0000,-1.5000,0.0000,-0.0000,0.2261,0.0000,-0.0000,0.0000,0.0000,0.0000,2.0708,-0.0000,0.0000,-0.0000,0.0000,-0.0000,-0.0000,-18.0808
0.5440,0.0000,0.0000,-1.5000,0.0000,-0.0000,0.2178,0.0000,-0.0000,0.0000,0.0000,0.0000,2.0741,-0.0000,0.0000,-0.0000,0.0000,-0.0000,-0.0000,-18.0249
0.5480,0.0000,0.0000,-1.5000,0.0000,-0.0000,0.2095,0.0000,-0.0000,0.0000,0.0000,0.0000,2.0772,-0.0000,0.0000,-0.0000,0.0000,-0.0000,-0.0000,-17.9694
0.5520,0.0000,0.0000,-1.5000,0.0000,-0.0000,0.2012,0.0000,-0.0000,0.0000,0.0000,0.0000,2.0803,-0.0000,0.0000,-0.0000,0.0000,-0.0000,-0.0000,-17.9143
0.5560,0.0000,0.0000,-1.5000,0.0000,-0.0000,0.1928,0.0000,-0.0000,0.0000,0.0000,0.0000,2.0832,-0.0000,0.0000,-0.0000,0.0000,-0.0000,-0.0000,-17.8597
0.5600,0.0000,0.0000,-1.5000,0.0000,-0.0000,0.1845,0.0000,-0.0000,0.0000,0.0000,0.0000,2.0859,-0.0000,0.0000,-0.0000,0.0000,-0.0000,-0.0000,-17.8055
0.5640,0.0000,0.0000,-1.5000,0.0000,-0.0000,0.1761,0.0000,-0.0000,0.0000,0.0000,0.0000,2.0886,-0.0000,0.0000,-0.0000,0.0000,-0.0000,-0.0000,-17.7517
0.5680,0.0000,0.0000,-1.5000,0.0000,-0.0000,0.1678,0.0000,-0.0000,0.0000,0.0000,0.0000,2.0911,-0.0000,0.0000,-0.0000,0.0000,-0.0000,-0.0000,-17.6984
0.5720,0.0000,0.0000,-1.5000,0.0000,-0.0000,0.1594,0.0000,-0.0000,0.0000,0.0000,0.0000,2.0935,-0.0000,0.0000,-0.0000,0.0000,-0.0000,-0.0000,-17.6454
0.5760,0.0000,0.0000,-1.5000,0.0000,-0.0000,0.1510,0.0000,-0.0000,0.0000,0.0000,0.0000,2.0958,-0.0000,0.0000,-0.0000,0.0000,-0.0000,-0.0000,-17.5929
0.5800,0.0000,0.0000,-1.5000,0.0000,-0.0000,0.1426,0.0000,-0.0000,0.0000,0.0000,0.0000,2.0979,-0.0000,0.0000,-0.0000,0.0000,-0.0000,-0.0000,-17.5409
0.5840,0.0000,0.0000,-1.5000,0.0000,-0.0000,0.1342,0.0000,-0.0000,0.0000,0.0000,0.0000,2.1000,-0.0000,0.0000,-0.0000,0.0000,-0.0000,-0.0000,-17.4892
0.5880,0.0000,0.0000,-1.5000,0.0000,-0.0000,0.1258,0.0000,-0.0000,0.0000,0.0000,0.0000,2.1019,-0.0000,0.0000,-0.0000,0.0000,-0.0000,-0.0000,-17.4380
0.5920,0.0000,0.0000,-1.5000,0.0000,-0.0000,0.1174,0.0000,-0.0000,0.0000,0.0000,0.0000,2.1036,-0.0000,0.0000,-0.0000,0.0000,-0.0000,-0.0000,-17.3872
0.5960,0.0000,0.0000,-1.5000,0.0000,-0.0000,0.1090,0.0000,-0.0000,0.0000,0.0000,0.0000,2.1053,-0.0000,0.0000,-0.0000,0.0000,-0.0000,-0.0000,-17.3368
0.6000,0.0000,0.0000,-1.5000,0.0000,-0.0000,0.1005,0.0000,-0.0000,0.0000,0.0000,0.0000,2.1068,-0.0000,0.0000,-0.0000,0.0000,-0.0000,-0.0000,-17.2868
0.6040,0.0000,0.0000,-1.5000,0.0000,-0.0000,0.0921,0.0000,-0.0000,0.0000,0.0000,0.0000,2.1083,-0.0000,0.0000,-0.0000,0.0000,-0.0000,-0.0000,-17.2373
0.6080,0.0000,0.0000,-1.5000,0.0000,-0.0000,0.0837,0.0000,-0.0000,0.0000,0.0000,0.0000,2.1096,-0.0000,0.0000,-0.0000,0.0000,-0.0000,-0.0000,-17.1882
0.6120,0.0000,0.0000,-1.5000,0.0000,-0.0000,0.0752,0.0000,-0.0000,0.0000,0.0000,0.0000,2.1108,-0.0000,0.0000,-0.0000,0.0000,-0.0000,-0.0000,-17.1394
0.6160,0.0000,0.0000,-1.5000,0.0000,-0.0000,0.0668,0.0000,-0.0000,0.0000,0.0000,0.0000,2.1119,-0.0000,0.0000,-0.0000,0.0000,-0.0000,-0.0000,-17.0911
0.6200,0.0000,0.0000,-1.5000,0.0000,-0.0000,0.0583,0.0000,-0.0000,0.0000,0.0000,0.0000,2.1128,-0.0000,0.0000,-0.0000,0.0000,-0.0000,-0.0000,-17.0432
0.6240,0.0000,0.0000,-1.5000,0.0000,-0.0000,0.0499,0.0000,-0.0000,0.0000,0.0000,0.0000,2.1137,-0.0000,0.0000,-0.0000,0.0000,-0.0000,-0.0000,-16.9958
0.6280,0.0000,0.0000,-1.5000,0.0000,-0.0000,0.0414,0.0000,-0.0000,0.0000,0.0000,0.0000,2.1144,-0.0000,0.0000,-0.0000,0.0000,-0.0000,-0.0000,-16.9487
0.6320,0.0000,0.0000,-1.5000,0.0000,-0.0000,0.0330,0.0000,-0.0000,0.0000,0.0000,0.0000,2.1151,-0.0000,0.0000,-0.0000,0.0000,-0.0000,-0.0000,-16.9020
0.6360,0.0000,0.0000,-1.5000,0.0000,-0.0000,0.0245,0.0000,-0.0000,0.0000,0.0000,0.0000,2.1156,-0.0000,0.0000,-0.0000,0.0000,-0.0000,-0.0000,-16.8557
0.6400,0.0000,0.0000,-1.5000,0.0000,-0.0000,0.0160,0.0000,-0.0000,0.0000,0.0000,0.0000,2.1160,-0.0000,0.0000,-0.0000,0.0000,-0.0000,-0.0000,-16.8099
0.6440,0.0000,0.0000,-1.5000,0.0000,-0.0000,0.0076,0.0000,-0.0000,0.0000,0.0000,0.0000,2.1163,-0.0000,0.0000,-0.0000,0.0000,-0.0000,-0.0000,-16.7644
0.6480,0.0000,0.0000,-1.5000,0.0000,-0.0000,-0.0009,0.0000,-0.0000,0.0000,0.0000,0.0000,2.1165,-0.0000,0.0000,-0.0000,0.0000,-0.0000,-0.0000,-16.7194
0.6520,0.0000,0.0000,-1.5000,0.0000,-0.0000,-0.0094,0.0000,-0.0000,0.0000,0.0000,0.0000,2.1166,-0.0000,0.0000,-0.0000,0.0000,-0.0000,-0.0000,-16.6747
0.6560,0.0000,0.0000,-1.5000,0.0000,-0.0000,-0.0178,0.0000,-0.0000,0.0000,0.0000,0.0000,2.1166,-0.0000,0.0000,-0.0000,0.0000,-0.0000,-0.0000,-16.6305
0.6600,0.0000,0.0000,-1.5000,0.0000,-0.0000,-0.0263,0.0000,-0.0000,0.0000,0.0000,0.0000,2.1165,-0.0000,0.0000,-0.0000,0.0000,-0.0000,-0.0000,-16.5866
0.6640,0.0000,0.0000,-1.5000,0.0000,-0.0000,-0.0348,0.0000,-0.0000,0.0000,0.0000,0.0000,2.1162,-0.0000,0.0000,-0.0000,0.0000,-0.0000,-0.0000,-16.5432
0.6680,0.0000,0.0000,-1.5000,0.0000,-0.0000,-0.0432,0.0000,-0.0000,0.0000,0.0000,0.0000,2.1159,-0.0000,0.0000,-0.0000,0.0000,-0.0000,-0.0000,-16.5001
0.6720,0.0000,0.0000,-1.5000,0.0000,-0.0000,-0.0517,0.0000,-0.0000,0.0000,0.0000,0.0000,2.1155,-0.0000,0.0000,-0.0000,0.0000,-0.0000,-0.0000,-16.4574
0.6760,0.0000,0.0000,-1.5000,0.0000,-0.0000,-0.0602,0.0000,-0.0000,0.0000,0.0000,0.0000,2.1150,-0.0000,0.0000,-0.0000,0.0000,-0.0000,-0.0000,-16.4152
0.6800,0.0000,0.0000,-1.5000,0.0000,-0.0000,-0.0686,0.0000,-0.0000,0.0000,0.0000,0.0000,2.1144,-0.0000,0.0000,-0.0000,0.0000,-0.0000,-0.0000,-16.3733
0.6840,0.0000,0.0000,-1.5000,0.0000,-0.0000,-0.0771,0.0000,-0.0000,0.0000,0.0000,0.0000,2.1136,-0.0000,0.0000,-0.0000,0.0000,-0.0000,-0.0000,-16.3318
0.6880,0.0000,0.0000,-1.5000,0.0000,-0.0000,-0.0855,0.0000,-0.0000,0.0000,0.0000,0.0000,2.1128,-0.0000,0.0000,-0.0000,0.0000,-0.0000,-0.0000,-16.2907
0.6920,0.0000,0.0000,-1.5000,0.0000,-0.0000,-0.0940,0.0000,-0.0000,0.0000,0.0000,0.0000,2.1119,-0.0000,0.0000,-0.0000,0.0000,-0.0000,-0.0000,-16.2500
0.6960,0.0000,0.0000,-1.5000,0.0000,-0.0000,-0.1024,0.0000,-0.0000,0.0000,0.0000,0.0000,2.1109,-0.0000,0.0000,-0.0000,0.0000,-0.0000,-0.0000,-16.2096
0.7000,0.0000,0.0000,-1.5000,0.0000,-0.0000,-0.1109,0.0000,-0.0000,0.0000,0.0000,0.0000,2.1098,-0.0000,0.0000,-0.0000,0.0000,-0.0000,-0.0000,-16.1697
0.7040,0.0000,0.0000,-1.5000,0.0000,-0.0000,-0.1193,0.0000,-0.0000,0.0000,0.0000,0.0000,2.1086,-0.0000,0.0000,-0.0000,0.0000,-0.0000,-0.0000,-16.1301
0.7080,0.0000,0.0000,-1.5000,0.0000,-0.0000,-0.1277,0.0000,-0.0000,0.0000,0.0000,0.0000,2.1073,-0.0000,0.0000,-0.0000,0.0000,-0.0000,-0.0000,-16.0909
0.7120,0.0000,0.0000,-1.5000,0.0000,-0.0000,-0.1361,0.0000,-0.0000,0.0000,0.0000,0.0000,2.1059,-0.0000,0.0000,-0.0000,0.0000,-0.0000,-0.0000,-16.0521
0.7160,0.0000,0.0000,-1.5000,0.0000,-0.0000,-0.1446,0.0000,-0.0000,0.0000,0.0000,0.0000,2.1044,-0.0000,0.0000,-0.0000,0.0000,-0.0000,-0.0000,-16.0137
0.7200,0.0000,0.0000,-1.5000,0.0000,-0.0000,-0.1530,0.0000,-0.0000,0.0000,0.0000,0.0000,2.1029,-0.0000,0.0000,-0.0000,0.0000,-0.0000,-0.0000,-15.9756
0.7240,0.0000,0.0000,-1.5000,0.0000,-0.0000,-0.1614,0.0000,-0.0000,0.0000,0.0000,0.0000,2.1012,-0.0000,0.0000,-0.0000,0.0000,-0.0000,-0.0000,-15.9379
0.7280,0.0000,0.0000,-1.5000,0.0000,-0.0000,-0.1698,0.0000,-0.0000,0.0000,0.0000,0.0000,2.0995,-0.0000,0.0000,-0.0000,0.0000,-0.0000,-0.0000,-15.9006
0.7320,0.0000,0.0000,-1.5000,0.0000,-0.0000,-0.1782,0.0000,-0.0000,0.0000,0.0000,0.0000,2.0976,-0.0000,0.0000,-0.0000,0.0000,-0.0000,-0.0000,-15.8637
0.7360,0.0000,0.0000,-1.5000,0.0000,-0.0000,-0.1865,0.0000,-0.0000,0.0000,0.0000,0.0000,2.0957,-0.0000,0.0000,-0.0000,0.0000,-0.0000,-0.0000,-15.8271
0.7400,0.0000,0.0000,-1.5000,0.0000,-0.0000,-0.1949,0.0000,-0.0000,0.0000,0.0000,0.0000,2.0937,-0.0000,0.0000,-0.0000,0.0000,-0.0000,-0.0000,-15.7909
0.7440,0.0000,0.0000,-1.5000,0.0000,-0.0000,-0.2033,0.0000,-0.0000,0.0000,0.0000,0.0000,2.0916,-0.0000,0.0000,-0.0000,0.0000,-0.0000,-0.0000,-15.7551
0.7480,0.0000,0.0000,-1.5000,0.0000,-0.0000,-0.2116,0.0000,-0.0000,0.0000,0.0000,0.0000,2.0894,-0.0000,0.0000,-0.0000,0.0000,-0.0000,-0.0000,-15.7197
0.7520,0.0000,0.0000,-1.5000,0.0000,-0.0000,-0.2200,0.0000,-0.0000,0.0000,0.0000,0.0000,2.0872,-0.0000,0.0000,-0.0000,0.0000,-0.0000,-0.0000,-15.6846
0.7560,0.0000,0.0000,-1.5000,0.0000,-0.0000,-0.2283,0.0000,-0.0000,0.0000,0.0000,0.0000,2.0848,-0.0000,0.0000,-0.0000,0.0000,-0.0000,-0.0000,-15.6498
0.7600,0.0000,0.0000,-1.5000,0.0000,-0.0000,-0.2367,0.0000,-0.0000,0.0000,0.0000,0.0000,2.0824,-0.0000,0.0000,-0.0000,0.0000,-0.0000,-0.0000,-15.6154
0.7640,0.0000,0.0000,-1.5000,0.0000,-0.0000,-0.2450,0.0000,-0.0000,0.0000,0.0000,0.0000,2.0799,-0.0000,0.0000,-0.0000,0.0000,-0.0000,-0.0000,-15.5814
0.7680,0.0000,0.0000,-1.5000,0.0000,-0.0000,-0.2533,0.0000,-0.0000,0.0000,0.0000,0.0000,2.0773,-0.0000,0.0000,-0.0000,0.0000,-0.0000,-0.0000,-15.5478
0.7720,0.0000,0.0000,-1.5000,0.0000,-0.0000,-0.2616,0.0000,-0.0000,0.0000,0.0000,0.0000,2.0747,-0.0000,0.0000,-0.0000,0.0000,-0.0000,-0.0000,-15.5145
0.7760,0.0000,0.0000,-1.5000,0.0000,-0.0000,-0.2699,0.0000,-0.0000,0.0000,0.0000,0.0000,2.0719,-0.0000,0.0000,-0.0000,0.0000,-0.0000,-0.0000,-15.4815
0.7800,0.0000,0.0000,-1.5000,0.0000,-0.0000,-0.2782,0.0000,-0.0000,0.0000,0.0000,0.0000,2.0691,-0.0000,0.0000,-0.0000,0.0000,-0.0000,-0.0000,-15.4489
0.7840,0.0000,0.0000,-1.5000,0.0000,-0.0000,-0.2864,0.0000,-0.0000,0.0000,0.0000,0.0000,2.0662,-0.0000,0.0000,-0.0000,0.0000,-0.0000,-0.0000,-15.4167
0.7880,0.0000,0.0000,-1.5000,0.0000,-0.0000,-0.2947,0.0000,-0.0000,0.0000,0.0000,0.0000,2.0633,-0.0000,0.0000,-0.0000,0.0000,-0.0000,-0.0000,-15.3848
0.7920,0.0000,0.0000,-1.5000,0.0000,-0.0000,-0.3029,0.0000,-0.0000,0.0000,0.0000,0.0000,2.0602,-0.0000,0.0000,-0.0000,0.0000,-0.0000,-0.0000,-15.3533
0.7960,0.0000,0.0000,-1.5000,0.0000,-0.0000,-0.3111,0.0000,-0.0000,0.0000,0.0000,0.0000,2.0571,-0.0000,0.0000,-0.0000,0.0000,-0.0000,-0.0000,-15.3221
0.8000,0.0000,0.0000,-1.5000,0.0000,-0.0000,-0.3194,0.0000,-0.0000,0.0000,0.0000,0.0000,2.0539,-0.0000,0.0000,-0.0000,0.0000,-0.0000,-0.0000,-15.2912
0.8040,0.0000,0.0000,-1.5000,0.0000,-0.0000,-0.3276,0.0000,-0.0000,0.0000,0.0000,0.0000,2.0506,-0.0000,0.0000,-0.0000,0.0000,-0.0000,-0.0000,-15.2607
0.8080,0.0000,0.0000,-1.5000,0.0000,-0.0000,-0.3357,0.0000,-0.0000,0.0000,0.0000,0.0000,2.0473,-0.0000,0.0000,-0.0000,0.0000,-0.0000,-0.0000,-15.2306
0.8120,0.0000,0.0000,-1.5000,0.0000,-0.0000,-0.3439,0.0000,-0.0000,0.0000,0.0000,0.0000,2.0439,-0.0000,0.0000,-0.0000,0.0000,-0.0000,-0.0000,-15.2008
0.8160,0.0000,0.0000,-1.5000,0.0000,-0.0000,-0.3521,0.0000,-0.0000,0.0000,0.0000,0.0000,2.0404,-0.0000,0.0000,-0.0000,0.0000,-0.0000,-0.0000,-15.1713
0.8200,0.0000,0.0000,-1.5000,0.0000,-0.0000,-0.3602,0.0000,-0.0000,0.0000,0.0000,0.0000,2.0369,-0.0000,0.0000,-0.0000,0.0000,-0.0000,-0.0000,-15.1421
0.8240,0.0000,0.0000,-1.5000,0.0000,-0.0000,-0.3684,0.0000,-0.0000,0.0000,0.0000,0.0000,2.0332,-0.0000,0.0000,-0.0000,0.0000,-0.0000,-0.0000,-15.1133
0.8280,0.0000,0.0000,-1.5000,0.0000,-0.0000,-0.3765,0.0000,-0.0000,0.0000,0.0000,0.0000,2.0296,-0.0000,0.0000,-0.0000,0.0000,-0.0000,-0.0000,-15.0849
0.8320,0.0000,0.0000,-1.5000,0.0000,-0.0000,-0.3846,0.0000,-0.0000,0.0000,0.0000,0.0000,2.0258,-0.0000,0.0000,-0.0000,0.0000,-0.0000,-0.0000,-15.0567
0.8360,0.0000,0.0000,-1.5000,0.0000,-0.0000,-0.3927,0.0000,-0.0000,0.0000,0.0000,0.0000,2.0220,-0.0000,0.0000,-0.0000,0.0000,-0.0000,-0.0000,-15.0289
0.8400,0.0000,0.0000,-1.5000,0.0000,-0.0000,-0.4007,0.0000,-0.0000,0.0000,0.0000,0.0000,2.0181,-0.0000,0.0000,-0.0000,0.0000,-0.0000,-0.0000,-15.0014
0.8440,0.0000,0.0000,-1.5000,0.0000,-0.0000,-0.4088,0.0000,-0.0000,0.0000,0.0000,0.0000,2.0142,-0.0000,0.0000,-0.0000,0.0000,-0.0000,-0.0000,-14.9743
0.8480,0.0000,0.0000,-1.5000,0.0000,-0.0000,-0.4168,0.0000,-0.0000,0.0000,0.0000,0.0000,2.0101,-0.0000,0.0000,-0.0000,0.0000,-0.0000,-0.0000,-14.9475
0.8520,0.0000,0.0000,-1.5000,0.0000,-0.0000,-0.4249,0.0000,-0.0000,0.0000,0.0000,0.0000,2.0061,-0.0000,0.0000,-0.0000,0.0000,-0.0000,-0.0000,-14.9210
0.8560,0.0000,0.0000,-1.5000,0.0000,-0.0000,-0.4329,0.0000,-0.0000,0.0000,0.0000,0.0000,2.0019,-0.0000,0.0000,-0.0000,0.0000,-0.0000,-0.0000,-14.8948
0.8600,0.0000,0.0000,-1.5000,0.0000,-0.0000,-0.4409,0.0000,-0.0000,0.0000,0.0000,0.0000,1.9977,-0.0000,0.0000,-0.0000,0.0000,-0.0000,-0.0000,-14.8690
0.8640,0.0000,0.0000,-1.5000,0.0000,-0.0000,-0.4488,0.0000,-0.0000,0.0000,0.0000,0.0000,1.9935,-0.0000,0.0000,-0.0000,0.0000,-0.0000,-0.0000,-14.8434
0.8680,0.0000,0.0000,-1.5000,0.0000,-0.0000,-0.4568,0.0000,-0.0000,0.0000,0.0000,0.0000,1.9892,-0.0000,0.0000,-0.0000,0.0000,-0.0000,-0.0000,-14.8182
0.8720,0.0000,0.0000,-1.5000,0.0000,-0.0000,-0.4647,0.0000,-0.0000,0.0000,0.0000,0.0000,1.9848,-0.0000,0.0000,-0.0000,0.0000,-0.0000,-0.0000,-14.7933
0.8760,0.0000,0.0000,-1.5000,0.0000,-0.0000,-0.4727,0.0000,-0.0000,0.0000,0.0000,0.0000,1.9803,-0.0000,0.0000,-0.0000,0.0000,-0.0000,-0.0000,-14.7687
0.8800,0.0000,0.0000,-1.5000,0.0000,-0.0000,-0.4806,0.0000,-0.0000,0.0000,0.0000,0.0000,1.9758,-0.0000,0.0000,-0.0000,0.0000,-0.0000,-0.0000,-14.7445
0.8840,0.0000,0.0000,-1.5000,0.0000,-0.0000,-0.4884,0.0000,-0.0000,0.0000,0.0000,0.0000,1.9713,-0.0000,0.0000,-0.0000,0.0000,-0.0000,-0.0000,-14.7205
0.8880,0.0000,0.0000,-1.5000,0.0000,-0.0000,-0.4963,0.0000,-0.0000,0.0000,0.0000,0.0000,1.9667,-0.0000,0.0000,-0.0000,0.0000,-0.0000,-0.0000,-14.6969
0.8920,0.0000,0.0000,-1.5000,0.0000,-0.0000,-0.5042,0.0000,-0.0000,0.0000,0.0000,0.0000,1.9620,-0.0000,0.0000,-0.0000,0.0000,-0.0000,-0.0000,-14.6735
0.8960,0.0000,0.0000,-1.5000,0.0000,-0.0000,-0.5120,0.0000,-0.0000,0.0000,0.0000,0.0000,1.9573,-0.0000,0.0000,-0.0000,0.0000,-0.0000,-0.0000,-14.6505
0.9000,0.0000,0.0000,-1.5000,0.0000,-0.0000,-0.5198,0.0000,-0.0000,0.0000,0.0000,0.0000,1.9525,-0.0000,0.0000,-0.0000,0.0000,-0.0000,-0.0000,-14.6278
0.9040,0.0000,0.0000,-1.5000,0.0000,-0.0000,-0.5276,0.0000,-0.0000,0.0000,0.0000,0.0000,1.9477,-0.0000,0.0000,-0.0000,0.0000,-0.0000,-0.0000,-14.6054
0.9080,0.0000,0.0000,-1.5000,0.0000,-0.0000,-0.5354,0.0000,-0.0000,0.0000,0.0000,0.0000,1.9428,-0.0000,0.0000,-0.0000,0.0000,-0.0000,-0.0000,-14.5833
0.9120,0.0000,0.0000,-1.5000,0.0000,-0.0000,-0.5431,0.0000,-0.0000,0.0000,0.0000,0.0000,1.9379,-0.0000,0.0000,-0.0000,0.0000,-0.0000,-0.0000,-14.5615
0.9160,0.0000,0.0000,-1.5000,0.0000,-0.0000,-0.5508,0.0000,-0.0000,0.0000,0.0000,0.0000,1.9329,-0.0000,0.0000,-0.0000,0.0000,-0.0000,-0.0000,-14.5399
0.9200,0.0000,0.0000,-1.5000,0.0000,-0.0000,-0.5586,0.0000,-0.0000,0.0000,0.0000,0.0000,1.9279,-0.0000,0.0000,-0.0000,0.0000,-0.0000,-0.0000,-14.5187
0.9240,0.0000,0.0000,-1.5000,0.0000,-0.0000,-0.5662,0.0000,-0.0000,0.0000,0.0000,0.0000,1.9228,-0.0000,0.0000,-0.0000,0.0000,-0.0000,-0.0000,-14.4978
0.9280,0.0000,0.0000,-1.5000,0.0000,-0.0000,-0.5739,0.0000,-0.0000,0.0000,0.0000,0.0000,1.9177,-0.0000,0.0000,-0.0000,0.0000,-0.0000,-0.0000,-14.4772
0.9320,0.0000,0.0000,-1.5000,0.0000,-0.0000,-0.5816,0.0000,-0.0000,0.0000,0.0000,0.0000,1.9125,-0.0000,0.0000,-0.0000,0.0000,-0.0000,-0.0000,-14.4568
0.9360,0.0000,0.0000,-1.5000,0.0000,-0.0000,-0.5892,0.0000,-0.0000,0.0000,0.0000,0.0000,1.9073,-0.0000,0.0000,-0.0000,0.0000,-0.0000,-0.0000,-14.4368
0.9400,0.0000,0.0000,-1.5000,0.0000,-0.0000,-0.5968,0.0000,-0.0000,0.0000,0.0000,0.0000,1.9020,-0.0000,0.0000,-0.0000,0.0000,-0.0000,-0.0000,-14.4170
0.9440,0.0000,0.0000,-1.5000,0.0000,-0.0000,-0.6044,0.0000,-0.0000,0.0000,0.0000,0.0000,1.8967,-0.0000,0.0000,-0.0000,0.0000,-0.0000,-0.0000,-14.3976
0.9480,0.0000,0.0000,-1.5000,0.0000,-0.0000,-0.6120,0.0000,-0.0000,0.0000,0.0000,0.0000,1.8913,-0.0000,0.0000,-0.0000,0.0000,-0.0000,-0.0000,-14.3784
0.9520,0.0000,0.0000,-1.5000,0.0000,-0.0000,-0.6195,0.0000,-0.0000,0.0000,0.0000,0.0000,1.8859,-0.0000,0.0000,-0.0000,0.0000,-0.0000,-0.0000,-14.3595
0.9560,0.0000,0.0000,-1.5000,0.0000,-0.0000,-0.6270,0.0000,-0.0000,0.0000,0.0000,0.0000,1.8804,-0.0000,0.0000,-0.0000,0.0000,-0.0000,-0.0000,-14.3409
0.9600,0.0000,0.0000,-1.5000,0.0000,-0.0000,-0.6345,0.0000,-0.0000,0.0000,0.0000,0.0000,1.8749,-0.0000,0.0000,-0.0000,0.0000,-0.0000,-0.0000,-14.3226
0.9640,0.0000,0.0000,-1.5000,0.0000,-0.0000,-0.6420,0.0000,-0.0000,0.0000,0.0000,0.0000,1.8694,-0.0000,0.0000,-0.0000,0.0000,-0.0000,-0.0000,-14.3045
0.9680,0.0000,0.0000,-1.5000,0.0000,-0.0000,-0.6495,0.0000,-0.0000,0.0000,0.0000,0.0000,1.8638,-0.0000,0.0000,-0.0000,0.0000,-0.0000,-0.0000,-14.2868
0.9720,0.0000,0.0000,-1.5000,0.0000,-0.0000,-0.6569,0.0000,-0.0000,0.0000,0.0000,0.0000,1.8582,-0.0000,0.0000,-0.0000,0.0000,-0.0000,-0.0000,-14.2693
0.9760,0.0000,0.0000,-1.5000,0.0000,-0.0000,-0.6643,0.0000,-0.0000,0.0000,0.0000,0.0000,1.8525,-0.0000,0.0000,-0.0000,0.0000,-0.0000,-0.0000,-14.2520
0.9800,0.0000,0.0000,-1.5000,0.0000,-0.0000,-0.6717,0.0000,-0.0000,0.0000,0.0000,0.0000,1.8468,-0.0000,0.0000,-0.0000,0.0000,-0.0000,-0.0000,-14.2351
0.9840,0.0000,0.0000,-1.5000,0.0000,-0.0000,-0.6790,0.0000,-0.0000,0.0000,0.0000,0.0000,1.8410,-0.0000,0.0000,-0.0000,0.0000,-0.0000,-0.0000,-14.2184
0.9880,0.0000,0.0000,-1.5000,0.0000,-0.0000,-0.6864,0.0000,-0.0000,0.0000,0.0000,0.0000,1.8352,-0.0000,0.0000,-0.0000,0.0000,-0.0000,-0.0000,-14.2020
0.9920,0.0000,0.0000,-1.5000,0.0000,-0.0000,-0.6937,0.0000,-0.0000,0.0000,0.0000,0.0000,1.8294,-0.0000,0.0000,-0.0000,0.0000,-0.0000,-0.0000,-14.1859
0.9960,0.0000,0.0000,-1.5000,0.0000,-0.0000,-0.7010,0.0000,-0.0000,0.0000,0.0000,0.0000,1.8236,-0.0000,0.0000,-0.0000,0.0000,-0.0000,-0.0000,-14.1700
1.0000,0.0000,0.0000,-1.5000,0.0000,-0.0000,-0.7083,0.0000,-0.0000,0.0000,0.0000,0.0000,1.8177,-0.0000,0.0000,-0.0000,0.0000,-0.0000,-0.0000,-14.1544
1.0040,0.0000,0.0000,-1.5000,0.0000,-0.0000,-0.7155,0.0000,-0.0000,0.0000,0.0000,0.0000,1.8117,-0.0000,0.0000,-0.0000,0.0000,-0.0000,-0.0000,-14.1391
1.0080,0.0000,0.0000,-1.5000,0.0000,-0.0000,-0.7227,0.0000,-0.0000,0.0000,0.0000,0.0000,1.8057,-0.0000,0.0000,-0.0000,0.0000,-0.0000,-0.0000,-14.1240
1.0120,0.0000,0.0000,-1.5000,0.0000,-0.0000,-0.7299,0.0000,-0.0000,0.0000,0.0000,0.0000,1.7997,-0.0000,0.0000,-0.0000,0.0000,-0.0000,-0.0000,-14.1092
1.0160,0.0000,0.0000,-1.5000,0.0000,-0.0000,-0.7371,0.0000,-0.0000,0.0000,0.0000,0.0000,1.7937,-0.0000,0.0000,-0.0000,0.0000,-0.0000,-0.0000,-14.0946
1.0200,0.0000,0.0000,-1.5000,0.0000,-0.0000,-0.7443,0.0000,-0.0000,0.0000,0.0000,0.0000,1.7876,-0.0000,0.0000,-0.0000,0.0000,-0.0000,-0.0000,-14.0803
1.0240,0.0000,0.0000,-1.5000,0.0000,-0.0000,-0.7514,0.0000,-0.0000,0.0000,0.0000,0.0000,1.7815,-0.0000,0.0000,-0.0000,0.0000,-0.0000,-0.0000,-14.0663
1.0280,0.0000,0.0000,-1.5000,0.0000,-0.0000,-0.7585,0.0000,-0.0000,0.0000,0.0000,0.0000,1.7753,-0.0000,0.0000,-0.0000,0.0000,-0.0000,-0.0000,-14.0525
1.0320,0.0000,0.0000,-1.5000,0.0000,-0.0000,-0.7656,0.0000,-0.0000,0.0000,0.0000,0.0000,1.7692,-0.0000,0.0000,-0.0000,0.0000,-0.0000,-0.0000,-14.0390
1.0360,0.0000,0.0000,-1.5000,0.0000,-0.0000,-0.7726,0.0000,-0.0000,0.0000,0.0000,0.0000,1.7630,-0.0000,0.0000,-0.0000,0.0000,-0.0000,-0.0000,-14.0257
1.0400,0.0000,0.0000,-1.5000,0.0000,-0.0000,-0.7796,0.0000,-0.0000,0.0000,0.0000,0.0000,1.7567,-0.0000,0.0000,-0.0000,0.0000,-0.0000,-0.0000,-14.0127
1.0440,0.0000,0.0000,-1.5000,0.0000,-0.0000,-0.7867,0.0000,-0.0000,0.0000,0.0000,0.0000,1.7504,-0.0000,0.0000,-0.0000,0.0000,-0.0000,-0.0000,-13.9999
1.0480,0.0000,0.0000,-1.5000,0.0000,-0.0000,-0.7936,0.0000,-0.0000,0.0000,0.0000,0.0000,1.7441,-0.0000,0.0000,-0.0000,0.0000,-0.0000,-0.0000,-13.9873
1.0520,0.0000,0.0000,-1.5000,0.0000,-0.0000,-0.8006,0.0000,-0.0000,0.0000,0.0000,0.0000,1.7378,-0.0000,0.0000,-0.0000,0.0000,-0.0000,-0.0000,-13.9750
1.0560,0.0000,0.0000,-1.5000,0.0000,-0.0000,-0.8075,0.0000,-0.0000,0.0000,0.0000,0.0000,1.7314,-0.0000,0.0000,-0.0000,0.0000,-0.0000,-0.0000,-13.9630
1.0600,0.0000,0.0000,-1.5000,0.0000,-0.0000,-0.8144,0.0000,-0.0000,0.0000,0.0000,0.0000,1.7250,-0.0000,0.0000,-0.0000,0.0000,-0.0000,-0.0000,-13.9512
1.0640,0.0000,0.0000,-1.5000,0.0000,-0.0000,-0.8213,0.0000,-0.0000,0.0000,0.0000,0.0000,1.7186,-0.0000,0.0000,-0.0000,0.0000,-0.0000,-0.0000,-13.9396
1.0680,0.0000,0.0000,-1.5000,0.0000,-0.0000,-0.8281,0.0000,-0.0000,0.0000,0.0000,0.0000,1.7122,-0.0000,0.0000,-0.0000,0.0000,-0.0000,-0.0000,-13.9283
1.0720,0.0000,0.0000,-1.5000,0.0000,-0.0000,-0.8350,0.0000,-0.0000,0.0000,0.0000,0.0000,1.7057,-0.0000,0.0000,-0.0000,0.0000,-0.0000,-0.0000,-13.9172
1.0760,0.0000,0.0000,-1.5000,0.0000,-0.0000,-0.8417,0.0000,-0.0000,0.0000,0.0000,0.0000,1.6992,-0.0000,0.0000,-0.0000,0.0000,-0.0000,-0.0000,-13.9063
1.0800,0.0000,0.0000,-1.5000,0.0000,-0.0000,-0.8485,0.0000,-0.0000,0.0000,0.0000,0.0000,1.6927,-0.0000,0.0000,-0.0000,0.0000,-0.0000,-0.0000,-13.8957
1.0840,0.0000,0.0000,-1.5000,0.0000,-0.0000,-0.8553,0.0000,-0.0000,0.0000,0.0000,0.0000,1.6861,-0.0000,0.0000,-0.0000,0.0000,-0.0000,-0.0000,-13.8853
1.0880,0.0000,0.0000,-1.5000,0.0000,-0.0000,-0.8620,0.0000,-0.0000,0.0000,0.0000,0.0000,1.6796,-0.0000,0.0000,-0.0000,0.0000,-0.0000,-0.0000,-13.8751
1.0920,0.0000,0.0000,-1.5000,0.0000,-0.0000,-0.8687,0.0000,-0.0000,0.0000,0.0000,0.0000,1.6730,-0.0000,0.0000,-0.0000,0.0000,-0.0000,-0.0000,-13.8652
1.0960,0.0000,0.0000,-1.5000,0.0000,-0.0000,-0.8753,0.0000,-0.0000,0.0000,0.0000,0.0000,1.6664,-0.0000,0.0000,-0.0000,0.0000,-0.0000,-0.0000,-13.8555
1.1000,0.0000,0.0000,-1.5000,0.0000,-0.0000,-0.8820,0.0000,-0.0000,0.0000,0.0000,0.0000,1.6597,-0.0000,0.0000,-0.0000,0.0000,-0.0000,-0.0000,-13.8460
1.1040,0.0000,0.0000,-1.5000,0.0000,-0.0000,-0.8886,0.0000,-0.0000,0.0000,0.0000,0.0000,1.6530,-0.0000,0.0000,-0.0000,0.0000,-0.0000,-0.0000,-13.8367
1.1080,0.0000,0.0000,-1.5000,0.0000,-0.0000,-0.8952,0.0000,-0.0000,0.0000,0.0000,0.0000,1.6464,-0.0000,0.0000,-0.0000,0.0000,-0.0000,-0.0000,-13.8277
1.1120,0.0000,0.0000,-1.5000,0.0000,-0.0000,-0.9017,0.0000,-0.0000,0.0000,0.0000,0.0000,1.6397,-0.0000,0.0000,-0.0000,0.0000,-0.0000,-0.0000,-13.8189
1.1160,0.0000,0.0000,-1.5000,0.0000,-0.0000,-0.9083,0.0000,-0.0000,0.0000,0.0000,0.0000,1.6329,-0.0000,0.0000,-0.0000,0.0000,-0.0000,-0.0000,-13.8103
1.1200,0.0000,0.0000,-1.5000,0.0000,-0.0000,-0.9148,0.0000,-0.0000,0.0000,0.0000,0.0000,1.6262,-0.0000,0.0000,-0.0000,0.0000,-0.0000,-0.0000,-13.8019
1.1240,0.0000,0.0000,-1.5000,0.0000,-0.0000,-0.9212,0.0000,-0.0000,0.0000,0.0000,0.0000,1.6194,-0.0000,0.0000,-0.0000,0.0000,-0.0000,-0.0000,-13.7937
1.1280,0.0000,0.0000,-1.5000,0.0000,-0.0000,-0.9277,0.0000,-0.0000,0.0000,0.0000,0.0000,1.6126,-0.0000,0.0000,-0.0000,0.0000,-0.0000,-0.0000,-13.7858
1.1320,0.0000,0.0000,-1.5000,0.0000,-0.0000,-0.9341,0.0000,-0.0000,0.0000,0.0000,0.0000,1.6058,-0.0000,0.0000,-0.0000,0.0000,-0.0000,-0.0000,-13.7781
1.1360,0.0000,0.0000,-1.5000,0.0000,-0.0000,-0.9405,0.0000,-0.0000,0.0000,0.0000,0.0000,1.5990,-0.0000,0.0000,-0.0000,0.0000,-0.0000,-0.0000,-13.7705
1.1400,0.0000,0.0000,-1.5000,0.0000,-0.0000,-0.9469,0.0000,-0.0000,0.0000,0.0000,0.0000,1.5921,-0.0000,0.0000,-0.0000,0.0000,-0.0000,-0.0000,-13.7632
1.1440,0.0000,0.0000,-1.5000,0.0000,-0.0000,-0.9532,0.0000,-0.0000,0.0000,0.0000,0.0000,1.5853,-0.0000,0.0000,-0.0000,0.0000,-0.0000,-0.0000,-13.7561
1.1480,0.0000,0.0000,-1.5000,0.0000,-0.0000,-0.9595,0.0000,-0.0000,0.0000,0.0000,0.0000,1.5784,-0.0000,0.0000,-0.0000,0.0000,-0.0000,-0.0000,-13.7492
1.1520,0.0000,0.0000,-1.5000,0.0000,-0.0000,-0.9658,0.0000,-0.0000,0.0000,0.0000,0.0000,1.5715,-0.0000,0.0000,-0.0000,0.0000,-0.0000,-0.0000,-13.7425
1.1560,0.0000,0.0000,-1.5000,0.0000,-0.0000,-0.9721,0.0000,-0.0000,0.0000,0.0000,0.0000,1.5646,-0.0000,0.0000,-0.0000,0.0000,-0.0000,-0.0000,-13.7361
1.1600,0.0000,0.0000,-1.5000,0.0000,-0.0000,-0.9783,0.0000,-0.0000,0.0000,0.0000,0.0000,1.5577,-0.0000,0.0000,-0.0000,0.0000,-0.0000,-0.0000,-13.7298
1.1640,0.0000,0.0000,-1.5000,0.0000,-0.0000,-0.9845,0.0000,-0.0000,0.0000,0.0000,0.0000,1.5507,-0.0000,0.0000,-0.0000,0.0000,-0.0000,-0.0000,-13.7237
1.1680,0.0000,0.0000,-1.5000,0.0000,-0.0000,-0.9907,0.0000,-0.0000,0.0000,0.0000,0.0000,1.5438,-0.0000,0.0000,-0.0000,0.0000,-0.0000,-0.0000,-13.7178
1.1720,0.0000,0.0000,-1.5000,0.0000,-0.0000,-0.9968,0.0000,-0.0000,0.0000,0.0000,0.0000,1.5368,-0.0000,0.0000,-0.0000,0.0000,-0.0000,-0.0000,-13.7121
1.1760,0.0000,0.0000,-1.5000,0.0000,-0.0000,-1.0030,0.0000,-0.0000,0.0000,0.0000,0.0000,1.5298,-0.0000,0.0000,-0.0000,0.0000,-0.0000,-0.0000,-13.7067
1.1800,0.0000,0.0000,-1.5000,0.0000,-0.0000,-1.0091,0.0000,-0.0000,0.0000,0.0000,0.0000,1.5229,-0.0000,0.0000,-0.0000,0.0000,-0.0000,-0.0000,-13.7014
1.1840,0.0000,0.0000,-1.5000,0.0000,-0.0000,-1.0151,0.0000,-0.0000,0.0000,0.0000,0.0000,1.5158,-0.0000,0.0000,-0.0000,0.0000,-0.0000,-0.0000,-13.6963
1.1880,0.0000,0.0000,-1.5000,0.0000,-0.0000,-1.0212,0.0000,-0.0000,0.0000,0.0000,0.0000,1.5088,-0.0000,0.0000,-0.0000,0.0000,-0.0000,-0.0000,-13.6914
1.1920,0.0000,0.0000,-1.5000,0.0000,-0.0000,-1.0272,0.0000,-0.0000,0.0000,0.0000,0.0000,1.5018,-0.0000,0.0000,-0.0000,0.0000,-0.0000,-0.0000,-13.6867
1.1960,0.0000,0.0000,-1.5000,0.0000,-0.0000,-1.0331,0.0000,-0.0000,0.0000,0.0000,0.0000,1.4948,-0.0000,0.0000,-0.0000,0.0000,-0.0000,-0.0000,-13.6821
1.2000,0.0000,0.0000,-1.5000,0.0000,-0.0000,-1.0391,0.0000,-0.0000,0.0000,0.0000,0.0000,1.4877,-0.0000,0.0000,-0.0000,0.0000,-0.0000,-0.0000,-13.6778
1.2040,0.0000,0.0000,-1.5000,0.0000,-0.0000,-1.0450,0.0000,-0.0000,0.0000,0.0000,0.0000,1.4806,-0.0000,0.0000,-0.0000,0.0000,-0.0000,-0.0000,-13.6737
1.2080,0.0000,0.0000,-1.5000,0.0000,-0.0000,-1.0509,0.0000,-0.0000,0.0000,0.0000,0.0000,1.4736,-0.0000,0.0000,-0.0000,0.0000,-0.0000,-0.0000,-13.6697
1.2120,0.0000,0.0000,-1.5000,0.0000,-0.0000,-1.0568,0.0000,-0.0000,0.0000,0.0000,0.0000,1.4665,-0.0000,0.0000,-0.0000,0.0000,-0.0000,-0.0000,-13.6659
1.2160,0.0000,0.0000,-1.5000,0.0000,-0.0000,-1.0626,0.0000,-0.0000,0.0000,0.0000,0.0000,1.4594,-0.0000,0.0000,-0.0000,0.0000,-0.0000,-0.0000,-13.6623
1.2200,0.0000,0.0000,-1.5000,0.0000,-0.0000,-1.0684,0.0000,-0.0000,0.0000,0.0000,0.0000,1.4523,-0.0000,0.0000,-0.0000,0.0000,-0.0000,-0.0000,-13.6589
1.2240,0.0000,0.0000,-1.5000,0.0000,-0.0000,-1.0742,0.0000,-0.0000,0.0000,0.0000,0.0000,1.4452,-0.0000,0.0000,-0.0000,0.0000,-0.0000,-0.0000,-13.6557
1.2280,0.0000,0.0000,-1.5000,0.0000,-0.0000,-1.0800,0.0000,-0.0000,0.0000,0.0000,0.0000,1.4381,-0.0000,0.0000,-0.0000,0.0000,-0.0000,-0.0000,-13.6526
1.2320,0.0000,0.0000,-1.5000,0.0000,-0.0000,-1.0857,0.0000,-0.0000,0.0000,0.0000,0.0000,1.4310,-0.0000,0.0000,-0.0000,0.0000,-0.0000,-0.0000,-13.6497
1.2360,0.0000,0.0000,-1.5000,0.0000,-0.0000,-1.0914,0.0000,-0.0000,0.0000,0.0000,0.0000,1.4238,-0.0000,0.0000,-0.0000,0.0000,-0.0000,-0.0000,-13.6470
1.2400,0.0000,0.0000,-1.5000,0.0000,-0.0000,-1.0970,0.0000,-0.0000,0.0000,0.0000,0.0000,1.4167,-0.0000,0.0000,-0.0000,0.0000,-0.0000,-0.0000,-13.6445
1.2440,0.0000,0.0000,-1.5000,0.0000,-0.0000,-1.1027,0.0000,-0.0000,0.0000,0.0000,0.0000,1.4096,-0.0000,0.0000,-0.0000,0.0000,-0.0000,-0.0000,-13.6421
1.2480,0.0000,0.0000,-1.5000,0.0000,-0.0000,-1.1083,0.0000,-0.0000,0.0000,0.0000,0.0000,1.4024,-0.0000,0.0000,-0.0000,0.0000,-0.0000,-0.0000,-13.6400
1.2520,0.0000,0.0000,-1.5000,0.0000,-0.0000,-1.1139,0.0000,-0.0000,0.0000,0.0000,0.0000,1.3953,-0.0000,0.0000,-0.0000,0.0000,-0.0000,-0.0000,-13.6379
1.2560,0.0000,0.0000,-1.5000,0.0000,-0.0000,-1.1194,0.0000,-0.0000,0.0000,0.0000,0.0000,1.3881,-0.0000,0.0000,-0.0000,0.0000,-0.0000,-0.0000,-13.6361
1.2600,0.0000,0.0000,-1.5000,0.0000,-0.0000,-1.1249,0.0000,-0.0000,0.0000,0.0000,0.0000,1.3810,-0.0000,0.0000,-0.0000,0.0000,-0.0000,-0.0000,-13.6344
1.2640,0.0000,0.0000,-1.5000,0.0000,-0.0000,-1.1304,0.0000,-0.0000,0.0000,0.0000,0.0000,1.3738,-0.0000,0.0000,-0.0000,0.0000,-0.0000,-0.0000,-13.6329
1.2680,0.0000,0.0000,-1.5000,0.0000,-0.0000,-1.1359,0.0000,-0.0000,0.0000,0.0000,0.0000,1.3666,-0.0000,0.0000,-0.0000,0.0000,-0.0000,-0.0000,-13.6315
1.2720,0.0000,0.0000,-1.5000,0.0000,-0.0000,-1.1413,0.0000,-0.0000,0.0000,0.0000,0.0000,1.3595,-0.0000,0.0000,-0.0000,0.0000,-0.0000,-0.0000,-13.6303
1.2760,0.0000,0.0000,-1.5000,0.0000,-0.0000,-1.1468,0.0000,-0.0000,0.0000,0.0000,0.0000,1.3523,-0.0000,0.0000,-0.0000,0.0000,-0.0000,-0.0000,-13.6293
1.2800,0.0000,0.0000,-1.5000,0.0000,-0.0000,-1.1521,0.0000,-0.0000,0.0000,0.0000,0.0000,1.3451,-0.0000,0.0000,-0.0000,0.0000,-0.0000,-0.0000,-13.6284
1.2840,0.0000,0.0000,-1.5000,0.0000,-0.0000,-1.1575,0.0000,-0.0000,0.0000,0.0000,0.0000,1.3379,-0.0000,0.0000,-0.0000,0.0000,-0.0000,-0.0000,-13.6277
1.2880,0.0000,0.0000,-1.5000,0.0000,-0.0000,-1.1628,0.0000,-0.0000,0.0000,0.0000,0.0000,1.3308,-0.0000,0.0000,-0.0000,0.0000,-0.0000,-0.0000,-13.6271
1.2920,0.0000,0.0000,-1.5000,0.0000,-0.0000,-1.1681,0.0000,-0.0000,0.0000,0.0000,0.0000,1.3236,-0.0000,0.0000,-0.0000,0.0000,-0.0000,-0.0000,-13.6267
1.2960,0.0000,0.0000,-1.5000,0.0000,-0.0000,-1.1734,0.0000,-0.0000,0.0000,0.0000,0.0000,1.3164,-0.0000,0.0000,-0.0000,0.0000,-0.0000,-0.0000,-13.6265
1.3000,0.0000,0.0000,-1.5000,0.0000,-0.0000,-1.1786,0.0000,-0.0000,0.0000,0.0000,0.0000,1.3092,-0.0000,0.0000,-0.0000,0.0000,-0.0000,-0.0000,-13.6264
1.3040,0.0000,0.0000,-1.5000,0.0000,-0.0000,-1.1838,0.0000,-0.0000,0.0000,0.0000,0.0000,1.3020,-0.0000,0.0000,-0.0000,0.0000,-0.0000,-0.0000,-13.6264
1.3080,0.0000,0.0000,-1.5000,0.0000,-0.0000,-1.1890,0.0000,-0.0000,0.0000,0.0000,0.0000,1.2949,-0.0000,0.0000,-0.0000,0.0000,-0.0000,-0.0000,-13.6266
1.3120,0.0000,0.0000,-1.5000,0.0000,-0.0000,-1.1941,0.0000,-0.0000,0.0000,0.0000,0.0000,1.2877,-0.0000,0.0000,-0.0000,0.0000,-0.0000,-0.0000,-13.6270
1.3160,0.0000,0.0000,-1.5000,0.0000,-0.0000,-1.1993,0.0000,-0.0000,0.0000,0.0000,0.0000,1.2805,-0.0000,0.0000,-0.0000,0.0000,-0.0000,-0.0000,-13.6275
1.3200,0.0000,0.0000,-1.5000,0.0000,-0.0000,-1.2044,0.0000,-0.0000,0.0000,0.0000,0.0000,1.2733,-0.0000,0.0000,-0.0000,0.0000,-0.0000,-0.0000,-13.6281
1.3240,0.0000,0.0000,-1.5000,0.0000,-0.0000,-1.2094,0.0000,-0.0000,0.0000,0.0000,0.0000,1.2661,-0.0000,0.0000,-0.0000,0.0000,-0.0000,-0.0000,-13.6289
1.3280,0.0000,0.0000,-1.5000,0.0000,-0.0000,-1.2145,0.0000,-0.0000,0.0000,0.0000,0.0000,1.2590,-0.0000,0.0000,-0.0000,0.0000,-0.0000,-0.0000,-13.6298
1.3320,0.0000,0.0000,-1.5000,0.0000,-0.0000,-1.2195,0.0000,-0.0000,0.0000,0.0000,0.0000,1.2518,-0.0000,0.0000,-0.0000,0.0000,-0.0000,-0.0000,-13.6309
1.3360,0.0000,0.0000,-1.5000,0.0000,-0.0000,-1.2244,0.0000,-0.0000,0.0000,0.0000,0.0000,1.2446,-0.0000,0.0000,-0.0000,0.0000,-0.0000,-0.0000,-13.6321
1.3400,0.0000,0.0000,-1.5000,0.0000,-0.0000,-1.2294,0.0000,-0.0000,0.0000,0.0000,0.0000,1.2374,-0.0000,0.0000,-0.0000,0.0000,-0.0000,-0.0000,-13.6335
1.3440,0.0000,0.0000,-1.5000,0.0000,-0.0000,-1.2343,0.0000,-0.0000,0.0000,0.0000,0.0000,1.2303,-0.0000,0.0000,-0.0000,0.0000,-0.0000,-0.0000,-13.6350
1.3480,0.0000,0.0000,-1.5000,0.0000,-0.0000,-1.2392,0.0000,-0.0000,0.0000,0.0000,0.0000,1.2231,-0.0000,0.0000,-0.0000,0.0000,-0.0000,-0.0000,-13.6366
1.3520,0.0000,0.0000,-1.5000,0.0000,-0.0000,-1.2441,0.0000,-0.0000,0.0000,0.0000,0.0000,1.2160,-0.0000,0.0000,-0.0000,0.0000,-0.0000,-0.0000,-13.6384
1.3560,0.0000,0.0000,-1.5000,0.0000,-0.0000,-1.2489,0.0000,-0.0000,0.0000,0.0000,0.0000,1.2088,-0.0000,0.0000,-0.0000,0.0000,-0.0000,-0.0000,-13.6403
1.3600,0.0000,0.0000,-1.5000,0.0000,-0.0000,-1.2537,0.0000,-0.0000,0.0000,0.0000,0.0000,1.2017,-0.0000,0.0000,-0.0000,0.0000,-0.0000,-0.0000,-13.6423
1.3640,0.0000,0.0000,-1.5000,0.0000,-0.0000,-1.2585,0.0000,-0.0000,0.0000,0.0000,0.0000,1.1945,-0.0000,0.0000,-0.0000,0.0000,-0.0000,-0.0000,-13.6444
1.3680,0.0000,0.0000,-1.5000,0.0000,-0.0000,-1.2632,0.0000,-0.0000,0.0000,0.0000,0.0000,1.1874,-0.0000,0.0000,-0.0000,0.0000,-0.0000,-0.0000,-13.6467
1.3720,0.0000,0.0000,-1.5000,0.0000,-0.0000,-1.2680,0.0000,-0.0000,0.0000,0.0000,0.0000,1.1802,-0.0000,0.0000,-0.0000,0.0000,-0.0000,-0.0000,-13.6492
1.3760,0.0000,0.0000,-1.5000,0.0000,-0.0000,-1.2727,0.0000,-0.0000,0.0000,0.0000,0.0000,1.1731,-0.0000,0.0000,-0.0000,0.0000,-0.0000,-0.0000,-13.6517
1.3800,0.0000,0.0000,-1.5000,0.0000,-0.0000,-1.2773,0.0000,-0.0000,0.0000,0.0000,0.0000,1.1660,-0.0000,0.0000,-0.0000,0.0000,-0.0000,-0.0000,-13.6544
1.3840,0.0000,0.0000,-1.5000,0.0000,-0.0000,-1.2820,0.0000,-0.0000,0.0000,0.0000,0.0000,1.1589,-0.0000,0.0000,-0.0000,0.0000,-0.0000,-0.0000,-13.6572
1.3880,0.0000,0.0000,-1.5000,0.0000,-0.0000,-1.2866,0.0000,-0.0000,0.0000,0.0000,0.0000,1.1518,-0.0000,0.0000,-0.0000,0.0000,-0.0000,-0.0000,-13.6601
1.3920,0.0000,0.0000,-1.5000,0.0000,-0.0000,-1.2911,0.0000,-0.0000,0.0000,0.0000,0.0000,1.1447,-0.0000,0.0000,-0.0000,0.0000,-0.0000,-0.0000,-13.6631
1.3960,0.0000,0.0000,-1.5000,0.0000,-0.0000,-1.2957,0.0000,-0.0000,0.0000,0.0000,0.0000,1.1376,-0.0000,0.0000,-0.0000,0.0000,-0.0000,-0.0000,-13.6663
1.4000,0.0000,0.0000,-1.5000,0.0000,-0.0000,-1.3002,0.0000,-0.0000,0.0000,0.0000,0.0000,1.1305,-0.0000,0.0000,-0.0000,0.0000,-0.0000,-0.0000,-13.6696
1.4040,0.0000,0.0000,-1.5000,0.0000,-0.0000,-1.3047,0.0000,-0.0000,0.0000,0.0000,0.0000,1.1234,-0.0000,0.0000,-0.0000,0.0000,-0.0000,-0.0000,-13.6730
1.4080,0.0000,0.0000,-1.5000,0.0000,-0.0000,-1.3092,0.0000,-0.0000,0.0000,0.0000,0.0000,1.1163,-0.0000,0.0000,-0.0000,0.0000,-0.0000,-0.0000,-13.6765
1.4120,0.0000,0.0000,-1.5000,0.0000,-0.0000,-1.3136,0.0000,-0.0000,0.0000,0.0000,0.0000,1.1093,-0.0000,0.0000,-0.0000,0.0000,-0.0000,-0.0000,-13.6802
1.4160,0.0000,0.0000,-1.5000,0.0000,-0.0000,-1.3180,0.0000,-0.0000,0.0000,0.0000,0.0000,1.1022,-0.0000,0.0000,-0.0000,0.0000,-0.0000,-0.0000,-13.6839
1.4200,0.0000,0.0000,-1.5000,0.0000,-0.0000,-1.3224,0.0000,-0.0000,0.0000,0.0000,0.0000,1.0951,-0.0000,0.0000,-0.0000,0.0000,-0.0000,-0.0000,-13.6878
1.4240,0.0000,0.0000,-1.5000,0.0000,-0.0000,-1.3267,0.0000,-0.0000,0.0000,0.0000,0.0000,1.0881,-0.0000,0.0000,-0.0000,0.0000,-0.0000,-0.0000,-13.6918
1.4280,0.0000,0.0000,-1.5000,0.0000,-0.0000,-1.3311,0.0000,-0.0000,0.0000,0.0000,0.0000,1.0811,-0.0000,0.0000,-0.0000,0.0000,-0.0000,-0.0000,-13.6959
1.4320,0.0000,0.0000,-1.5000,0.0000,-0.0000,-1.3354,0.0000,-0.0000,0.0000,0.0000,0.0000,1.0741,-0.0000,0.0000,-0.0000,0.0000,-0.0000,-0.0000,-13.7001
1.4360,0.0000,0.0000,-1.5000,0.0000,-0.0000,-1.3396,0.0000,-0.0000,0.0000,0.0000,0.0000,1.0671,-0.0000,0.0000,-0.0000,0.0000,-0.0000,-0.0000,-13.7044
1.4400,0.0000,0.0000,-1.5000,0.0000,-0.0000,-1.3439,0.0000,-0.0000,0.0000,0.0000,0.0000,1.0601,-0.0000,0.0000,-0.0000,0.0000,-0.0000,-0.0000,-13.7088
1.4440,0.0000,0.0000,-1.5000,0.0000,-0.0000,-1.3481,0.0000,-0.0000,0.0000,0.0000,0.0000,1.0531,-0.0000,0.0000,-0.0000,0.0000,-0.0000,-0.0000,-13.7133
1.4480,0.0000,0.0000,-1.5000,0.0000,-0.0000,-1.3523,0.0000,-0.0000,0.0000,0.0000,0.0000,1.0461,-0.0000,0.0000,-0.0000,0.0000,-0.0000,-0.0000,-13.7180
1.4520,0.0000,0.0000,-1.5000,0.0000,-0.0000,-1.3564,0.0000,-0.0000,0.0000,0.0000,0.0000,1.0391,-0.0000,0.0000,-0.0000,0.0000,-0.0000,-0.0000,-13.7227
1.4560,0.0000,0.0000,-1.5000,0.0000,-0.0000,-1.3606,0.0000,-0.0000,0.0000,0.0000,0.0000,1.0322,-0.0000,0.0000,-0.0000,0.0000,-0.0000,-0.0000,-13.7275
1.4600,0.0000,0.0000,-1.5000,0.0000,-0.0000,-1.3647,0.0000,-0.0000,0.0000,0.0000,0.0000,1.0252,-0.0000,0.0000,-0.0000,0.0000,-0.0000,-0.0000,-13.7325
1.4640,0.0000,0.0000,-1.5000,0.0000,-0.0000,-1.3687,0.0000,-0.0000,0.0000,0.0000,0.0000,1.0183,-0.0000,0.0000,-0.0000,0.0000,-0.0000,-0.0000,-13.7375
1.4680,0.0000,0.0000,-1.5000,0.0000,-0.0000,-1.3728,0.0000,-0.0000,0.0000,0.0000,0.0000,1.0114,-0.0000,0.0000,-0.0000,0.0000,-0.0000,-0.0000,-13.7427
1.4720,0.0000,0.0000,-1.5000,0.0000,-0.0000,-1.3768,0.0000,-0.0000,0.0000,0.0000,0.0000,1.0045,-0.0000,0.0000,-0.0000,0.0000,-0.0000,-0.0000,-13.7479
1.4760,0.0000,0.0000,-1.5000,0.0000,-0.0000,-1.3808,0.0000,-0.0000,0.0000,0.0000,0.0000,0.9976,-0.0000,0.0000,-0.0000,0.0000,-0.0000,-0.0000,-13.7532
1.4800,0.0000,0.0000,-1.5000,0.0000,-0.0000,-1.3847,0.0000,-0.0000,0.0000,0.0000,0.0000,0.9907,-0.0000,0.0000,-0.0000,0.0000,-0.0000,-0.0000,-13.7587
1.4840,0.0000,0.0000,-1.5000,0.0000,-0.0000,-1.3887,0.0000,-0.0000,0.0000,0.0000,0.0000,0.9838,-0.0000,0.0000,-0.0000,0.0000,-0.0000,-0.0000,-13.7642
1.4880,0.0000,0.0000,-1.5000,0.0000,-0.0000,-1.3926,0.0000,-0.0000,0.0000,0.0000,0.0000,0.9769,-0.0000,0.0000,-0.0000,0.0000,-0.0000,-0.0000,-13.7698
1.4920,0.0000,0.0000,-1.5000,0.0000,-0.0000,-1.3965,0.0000,-0.0000,0.0000,0.0000,0.0000,0.9701,-0.0000,0.0000,-0.0000,0.0000,-0.0000,-0.0000,-13.7756
1.4960,0.0000,0.0000,-1.5000,0.0000,-0.0000,-1.4003,0.0000,-0.0000,0.0000,0.0000,0.0000,0.9633,-0.0000,0.0000,-0.0000,0.0000,-0.0000,-0.0000,-13.7814
1.5000,0.0000,0.0000,-1.5000,0.0000,-0.0000,-1.4041,0.0000,-0.0000,0.0000,0.0000,0.0000,0.9565,-0.0000,0.0000,-0.0000,0.0000,-0.0000,-0.0000,-13.7873
1.5040,0.0000,0.0000,-1.5000,0.0000,-0.0000,-1.4079,0.0000,-0.0000,0.0000,0.0000,0.0000,0.9496,-0.0000,0.0000,-0.0000,0.0000,-0.0000,-0.0000,-13.7933
1.5080,0.0000,0.0000,-1.5000,0.0000,-0.0000,-1.4117,0.0000,-0.0000,0.0000,0.0000,0.0000,0.9429,-0.0000,0.0000,-0.0000,0.0000,-0.0000,-0.0000,-13.7993
1.5120,0.0000,0.0000,-1.5000,0.0000,-0.0000,-1.4155,0.0000,-0.0000,0.0000,0.0000,0.0000,0.9361,-0.0000,0.0000,-0.0000,0.0000,-0.0000,-0.0000,-13.8055
1.5160,0.0000,0.0000,-1.5000,0.0000,-0.0000,-1.4192,0.0000,-0.0000,0.0000,0.0000,0.0000,0.9293,-0.0000,0.0000,-0.0000,0.0000,-0.0000,-0.0000,-13.8118
1.5200,0.0000,0.0000,-1.5000,0.0000,-0.0000,-1.4229,0.0000,-0.0000,0.0000,0.0000,0.0000,0.9226,-0.0000,0.0000,-0.0000,0.0000,-0.0000,-0.0000,-13.8181
1.5240,0.0000,0.0000,-1.5000,0.0000,-0.0000,-1.4265,0.0000,-0.0000,0.0000,0.0000,0.0000,0.9158,-0.0000,0.0000,-0.0000,0.0000,-0.0000,-0.0000,-13.8245
1.5280,0.0000,0.0000,-1.5000,0.0000,-0.0000,-1.4302,0.0000,-0.0000,0.0000,0.0000,0.0000,0.9091,-0.0000,0.0000,-0.0000,0.0000,-0.0000,-0.0000,-13.8310
1.5320,0.0000,0.0000,-1.5000,0.0000,-0.0000,-1.4338,0.0000,-0.0000,0.0000,0.0000,0.0000,0.9024,-0.0000,0.0000,-0.0000,0.0000,-0.0000,-0.0000,-13.8376
1.5360,0.0000,0.0000,-1.5000,0.0000,-0.0000,-1.4374,0.0000,-0.0000,0.0000,0.0000,0.0000,0.8957,-0.0000,0.0000,-0.0000,0.0000,-0.0000,-0.0000,-13.8443
1.5400,0.0000,0.0000,-1.5000,0.0000,-0.0000,-1.4409,0.0000,-0.0000,0.0000,0.0000,0.0000,0.8891,-0.0000,0.0000,-0.0000,0.0000,-0.0000,-0.0000,-13.8510
1.5440,0.0000,0.0000,-1.5000,0.0000,-0.0000,-1.4445,0.0000,-0.0000,0.0000,0.0000,0.0000,0.8824,-0.0000,0.0000,-0.0000,0.0000,-0.0000,-0.0000,-13.8579
1.5480,0.0000,0.0000,-1.5000,0.0000,-0.0000,-1.4480,0.0000,-0.0000,0.0000,0.0000,0.0000,0.8758,-0.0000,0.0000,-0.0000,0.0000,-0.0000,-0.0000,-13.8648
1.5520,0.0000,0.0000,-1.5000,0.0000,-0.0000,-1.4514,0.0000,-0.0000,0.0000,0.0000,0.0000,0.8692,-0.0000,0.0000,-0.0000,0.0000,-0.0000,-0.0000,-13.8717
1.5560,0.0000,0.0000,-1.5000,0.0000,-0.0000,-1.4549,0.0000,-0.0000,0.0000,0.0000,0.0000,0.8625,-0.0000,0.0000,-0.0000,0.0000,-0.0000,-0.0000,-13.8788
1.5600,0.0000,0.0000,-1.5000,0.0000,-0.0000,-1.4583,0.0000,-0.0000,0.0000,0.0000,0.0000,0.8560,-0.0000,0.0000,-0.0000,0.0000,-0.0000,-0.0000,-13.8859
1.5640,0.0000,0.0000,-1.5000,0.0000,-0.0000,-1.4617,0.0000,-0.0000,0.0000,0.0000,0.0000,0.8494,-0.0000,0.0000,-0.0000,0.0000,-0.0000,-0.0000,-13.8931
1.5680,0.0000,0.0000,-1.5000,0.0000,-0.0000,-1.4651,0.0000,-0.0000,0.0000,0.0000,0.0000,0.8428,-0.0000,0.0000,-0.0000,0.0000,-0.0000,-0.0000,-13.9004
1.5720,0.0000,0.0000,-1.5000,0.0000,-0.0000,-1.4684,0.0000,-0.0000,0.0000,0.0000,0.0000,0.8363,-0.0000,0.0000,-0.0000,0.0000,-0.0000,-0.0000,-13.9078
1.5760,0.0000,0.0000,-1.5000,0.0000,-0.0000,-1.4717,0.0000,-0.0000,0.0000,0.0000,0.0000,0.8298,-0.0000,0.0000,-0.0000,0.0000,-0.0000,-0.0000,-13.9152
1.5800,0.0000,0.0000,-1.5000,0.0000,-0.0000,-1.4750,0.0000,-0.0000,0.0000,0.0000,0.0000,0.8233,-0.0000,0.0000,-0.0000,0.0000,-0.0000,-0.0000,-13.9227
1.5840,0.0000,0.0000,-1.5000,0.0000,-0.0000,-1.4783,0.0000,-0.0000,0.0000,0.0000,0.0000,0.8168,-0.0000,0.0000,-0.0000,0.0000,-0.0000,-0.0000,-13.9303
1.5880,0.0000,0.0000,-1.5000,0.0000,-0.0000,-1.4815,0.0000,-0.0000,0.0000,0.0000,0.0000,0.8103,-0.0000,0.0000,-0.0000,0.0000,-0.0000,-0.0000,-13.9379
1.5920,0.0000,0.0000,-1.5000,0.0000,-0.0000,-1.4848,0.0000,-0.0000,0.0000,0.0000,0.0000,0.8039,-0.0000,0.0000,-0.0000,0.0000,-0.0000,-0.0000,-13.9456
1.5960,0.0000,0.0000,-1.5000,0.0000,-0.0000,-1.4879,0.0000,-0.0000,0.0000,0.0000,0.0000,0.7974,-0.0000,0.0000,-0.0000,0.0000,-0.0000,-0.0000,-13.9533
1.6000,0.0000,0.0000,-1.5000,0.0000,-0.0000,-1.4911,0.0000,-0.0000,0.0000,0.0000,0.0000,0.7910,-0.0000,0.0000,-0.0000,0.0000,-0.0000,-0.0000,-13.9612
